{
"type": "FeatureCollection",
"crs": { "type": "name", "properties": { "name": "urn:ogc:def:crs:OGC:1.3:CRS84" } },
                                                                                
"features": [
{ "type": "Feature", "properties": { "submission": 52, "NAME": "Ospedale Civile Maggiore SPDC Borgo Trento 1", "Latitude": 45.451777, "Longitude": 10.985437, "town": "Verona", "provincere": "Verona Veneto", "latnew": 45.451777, "lngnew": 10.985437 }, "geometry": { "type": "Point", "coordinates": [ 10.985437, 45.4517766 ] } },
{ "type": "Feature", "properties": { "submission": 51, "NAME": "Policlinico Borgo Roma SPDC", "Latitude": 45.403122, "Longitude": 10.993505, "town": "Verona", "provincere": "Verona Veneto", "latnew": 45.403122, "lngnew": 10.993505 }, "geometry": { "type": "Point", "coordinates": [ 10.9935051, 45.4031224 ] } },
{ "type": "Feature", "properties": { "submission": 58, "NAME": "Ospedale Civile San Martino di Belluno SPDC", "Latitude": 46.138820, "Longitude": 12.201276, "town": "Belluno", "provincere": "Belluno Veneto", "latnew": 46.138820, "lngnew": 12.201276 }, "geometry": { "type": "Point", "coordinates": [ 12.201276300000018, 46.1388202 ] } },
{ "type": "Feature", "properties": { "submission": 56, "NAME": "Casa di cura Villa Santa Chiara", "Latitude": 45.489677, "Longitude": 11.013985, "town": "Verona", "provincere": "Verona Veneto", "latnew": 45.489677, "lngnew": 11.013985 }, "geometry": { "type": "Point", "coordinates": [ 11.013985100000014, 45.4896772 ] } },
{ "type": "Feature", "properties": { "submission": 53, "NAME": "Ospedale Civile Maggiore SPDC Borgo Trento 2", "Latitude": 45.451777, "Longitude": 10.985437, "town": "Verona", "provincere": "Verona Veneto", "latnew": 45.451777, "lngnew": 10.985437 }, "geometry": { "type": "Point", "coordinates": [ 10.985437, 45.4517766 ] } },
{ "type": "Feature", "properties": { "submission": 54, "NAME": "Policlinico Borgo Roma Dipartimento Tossicodipendenze", "Latitude": 45.403122, "Longitude": 10.993505, "town": "Verona", "provincere": "Verona Veneto", "latnew": 45.403122, "lngnew": 10.993505 }, "geometry": { "type": "Point", "coordinates": [ 10.9935051, 45.4031224 ] } },
{ "type": "Feature", "properties": { "submission": 55, "NAME": "Ospedale Girolamo Fracastoro SPDC San Bonifacio", "Latitude": 45.391986, "Longitude": 11.279094, "town": "San Bonifacio", "provincere": "Verona Veneto", "latnew": 45.391986, "lngnew": 11.279094 }, "geometry": { "type": "Point", "coordinates": [ 11.279093800000055, 45.391986499999987 ] } },
{ "type": "Feature", "properties": { "submission": 57, "NAME": "Istituto Sorelle della Misericordia Santa Giuliana", "Latitude": 45.469511, "Longitude": 10.999955, "town": "Verona", "provincere": "Verona Veneto", "latnew": 45.469511, "lngnew": 10.999955 }, "geometry": { "type": "Point", "coordinates": [ 10.999955499999942, 45.4695106 ] } },
{ "type": "Feature", "properties": { "submission": 61, "NAME": "Ospedale di Feltre SPDC", "Latitude": 46.021574, "Longitude": 11.905305, "town": "Feltre", "provincere": "Belluno Veneto", "latnew": 46.023154, "lngnew": 11.908057 }, "geometry": { "type": "Point", "coordinates": [ 11.908056787104009, 46.02315400765621 ] } },
{ "type": "Feature", "properties": { "submission": 60, "NAME": "Ospedale di Pieve di Cadore Presidio ospedaliero Giovanni Paolo II SPDC\n", "Latitude": 46.431500, "Longitude": 12.376207, "town": "Belluno", "provincere": "Belluno Veneto", "latnew": 46.431500, "lngnew": 12.376207 }, "geometry": { "type": "Point", "coordinates": [ 12.3762074, 46.4314996 ] } },
{ "type": "Feature", "properties": { "submission": 62, "NAME": "Ospedale Civile di Bassano del Grappa SPDC", "Latitude": 45.749058, "Longitude": 11.746885, "town": "Bassano del Grappa", "provincere": "Vicenza Veneto", "latnew": 45.748647, "lngnew": 11.744714 }, "geometry": { "type": "Point", "coordinates": [ 11.744714234395383, 45.748646626678529 ] } },
{ "type": "Feature", "properties": { "submission": 63, "NAME": "Ospedale di Montecchio Maggiore SPDC", "Latitude": 45.509248, "Longitude": 11.398244, "town": "Montecchio Maggiore", "provincere": "Vicenza Veneto", "latnew": 45.509248, "lngnew": 11.398244 }, "geometry": { "type": "Point", "coordinates": [ 11.398243900000011, 45.5092483 ] } },
{ "type": "Feature", "properties": { "submission": 64, "NAME": "Ospedale San Bortolo di Vicenza SPDC 1", "Latitude": 45.556846, "Longitude": 11.548841, "town": "Vicenza", "provincere": "Vicenza Veneto", "latnew": 45.556846, "lngnew": 11.548841 }, "geometry": { "type": "Point", "coordinates": [ 11.548840700000028, 45.5568461 ] } },
{ "type": "Feature", "properties": { "submission": 65, "NAME": "Ospedale San Bortolo di Vicenza SPDC 2", "Latitude": 45.556846, "Longitude": 11.548841, "town": "Vicenza", "provincere": "Vicenza Veneto", "latnew": 45.556846, "lngnew": 11.548841 }, "geometry": { "type": "Point", "coordinates": [ 11.548840700000028, 45.5568461 ] } },
{ "type": "Feature", "properties": { "submission": 66, "NAME": "Presidio ospedaliero di Conegliano SPDC", "Latitude": 45.881493, "Longitude": 12.290467, "town": "Conegliano", "provincere": "Treviso Veneto", "latnew": 45.881493, "lngnew": 12.290467 }, "geometry": { "type": "Point", "coordinates": [ 12.290466599999945, 45.8814934 ] } },
{ "type": "Feature", "properties": { "submission": 67, "NAME": "Ospedale Civile San Valentino di Montebelluna SPDC", "Latitude": 45.775605, "Longitude": 12.036055, "town": "Montebelluna", "provincere": "Treviso Veneto", "latnew": 45.775605, "lngnew": 12.036055 }, "geometry": { "type": "Point", "coordinates": [ 12.036055300000044, 45.7756051 ] } },
{ "type": "Feature", "properties": { "submission": 68, "NAME": "Presidio ospedaliero di Oderzo SPDC", "Latitude": 45.781780, "Longitude": 12.487600, "town": "Oderzo", "provincere": "Treviso Veneto", "latnew": 45.781780, "lngnew": 12.487600 }, "geometry": { "type": "Point", "coordinates": [ 12.4876, 45.78178 ] } },
{ "type": "Feature", "properties": { "submission": 69, "NAME": "Ospedale SS. Giovanni e Paolo di Venezia SPDC", "Latitude": 45.440739, "Longitude": 12.343515, "town": "Venezia", "provincere": "Venezia Veneto", "latnew": 45.440739, "lngnew": 12.343515 }, "geometry": { "type": "Point", "coordinates": [ 12.3435154, 45.4407388 ] } },
{ "type": "Feature", "properties": { "submission": 70, "NAME": "Ospedale dell?Angelo di Mestre SPDC", "Latitude": 45.513775, "Longitude": 12.214061, "town": "Mestre", "provincere": "Venezia Veneto", "latnew": 45.513607, "lngnew": 12.222890 }, "geometry": { "type": "Point", "coordinates": [ 12.222889764624579, 45.513607119029238 ] } },
{ "type": "Feature", "properties": { "submission": 71, "NAME": "Ospedale civile di Dolo SPDC", "Latitude": 45.422399, "Longitude": 12.067667, "town": "Dolo", "provincere": "Venezia Veneto", "latnew": 45.422399, "lngnew": 12.067667 }, "geometry": { "type": "Point", "coordinates": [ 12.067667, 45.4223991 ] } },
{ "type": "Feature", "properties": { "submission": 72, "NAME": "Ospedale di Chioggia SPDC", "Latitude": 45.197113, "Longitude": 12.284282, "town": "Chioggia", "provincere": "Venezia Veneto", "latnew": 45.198321, "lngnew": 12.284351 }, "geometry": { "type": "Point", "coordinates": [ 12.28435077292913, 45.198320819679843 ] } },
{ "type": "Feature", "properties": { "submission": 73, "NAME": "Ospedale civile Pietro Cosma di Camposampiero SPDC", "Latitude": 45.566093, "Longitude": 11.924793, "town": "Camposampiero", "provincere": "Padova Veneto", "latnew": 45.564509, "lngnew": 11.928650 }, "geometry": { "type": "Point", "coordinates": [ 11.928650027263153, 45.564509048475266 ] } },
{ "type": "Feature", "properties": { "submission": 74, "NAME": "Ospedale di Cittadella SPDC", "Latitude": 45.645886, "Longitude": 11.785900, "town": "Cittadella", "provincere": "Padova Veneto", "latnew": 45.647503, "lngnew": 11.787376 }, "geometry": { "type": "Point", "coordinates": [ 11.787375603810109, 45.647503229901496 ] } },
{ "type": "Feature", "properties": { "submission": 75, "NAME": "Ospedale San Luca di Trecenta SPDC", "Latitude": 45.034447, "Longitude": 11.463520, "town": "Trecenta", "provincere": "Rovigo Veneto", "latnew": 45.030255, "lngnew": 11.466006 }, "geometry": { "type": "Point", "coordinates": [ 11.466005668680644, 45.030254725680415 ] } },
{ "type": "Feature", "properties": { "submission": 76, "NAME": "Ospedale civile di Adria Santa Maria Regina Degli Angeli SPDC", "Latitude": 45.048077, "Longitude": 12.053716, "town": "Adria", "provincere": "Rovigo Veneto", "latnew": 45.048077, "lngnew": 12.053716 }, "geometry": { "type": "Point", "coordinates": [ 12.0537157, 45.0480773 ] } },
{ "type": "Feature", "properties": { "submission": 77, "NAME": "Ospedale Mater Salutis di Legnago SPDC", "Latitude": 45.185501, "Longitude": 11.315037, "town": "Legnago", "provincere": "Verona Veneto", "latnew": 45.185501, "lngnew": 11.315037 }, "geometry": { "type": "Point", "coordinates": [ 11.315037, 45.1855008 ] } },
{ "type": "Feature", "properties": { "submission": 78, "NAME": "Ospedale S. Antonio di Padova SPDC 1", "Latitude": 45.392776, "Longitude": 11.891748, "town": "Padova", "provincere": "Padova Veneto", "latnew": 45.392776, "lngnew": 11.891748 }, "geometry": { "type": "Point", "coordinates": [ 11.891748099999973, 45.3927759 ] } },
{ "type": "Feature", "properties": { "submission": 79, "NAME": "Ospedale S. Antonio di Padova SPDC 2", "Latitude": 45.392776, "Longitude": 11.891748, "town": "Padova", "provincere": "Padova Veneto", "latnew": 45.392776, "lngnew": 11.891748 }, "geometry": { "type": "Point", "coordinates": [ 11.891748099999973, 45.3927759 ] } },
{ "type": "Feature", "properties": { "submission": 80, "NAME": "Azienda Ospedaliera di Padova SPDC", "Latitude": 45.403616, "Longitude": 11.886188, "town": "Padova", "provincere": "Padova Veneto", "latnew": 45.403616, "lngnew": 11.886188 }, "geometry": { "type": "Point", "coordinates": [ 11.886188100000027, 45.4036157 ] } },
{ "type": "Feature", "properties": { "submission": 81, "NAME": "Casa di cura privata Villa Margherita", "Latitude": 45.513350, "Longitude": 11.544550, "town": "Arcugnano", "provincere": "Vicenza Veneto", "latnew": 45.513350, "lngnew": 11.544550 }, "geometry": { "type": "Point", "coordinates": [ 11.5445499, 45.51335 ] } },
{ "type": "Feature", "properties": { "submission": 82, "NAME": "Casa di cura privata neuropsichiatrica Park villa Napoleon", "Latitude": 45.591001, "Longitude": 12.234373, "town": "Preganziol", "provincere": "Treviso Veneto", "latnew": 45.591001, "lngnew": 12.234373 }, "geometry": { "type": "Point", "coordinates": [ 12.234373099999971, 45.5910007 ] } },
{ "type": "Feature", "properties": { "submission": 83, "NAME": "Casa di cura privata Parco dei tigli", "Latitude": 45.366442, "Longitude": 11.687995, "town": "Costigliola di Villa di Teolo", "provincere": "Padova Veneto", "latnew": 45.366442, "lngnew": 11.687995 }, "geometry": { "type": "Point", "coordinates": [ 11.68799480000007, 45.3664425 ] } },
{ "type": "Feature", "properties": { "submission": 84, "NAME": "Ospedale di Isola della Scala SPDC", "Latitude": 45.268096, "Longitude": 11.007449, "town": "Isola della Scala", "provincere": "Verona Veneto", "latnew": 45.268096, "lngnew": 11.007449 }, "geometry": { "type": "Point", "coordinates": [ 11.007449, 45.268096 ] } },
{ "type": "Feature", "properties": { "submission": 85, "NAME": "Ospedale di Caprino Veronese SPDC", "Latitude": 45.607658, "Longitude": 10.799420, "town": "Caprino Veronese", "provincere": "Verona Veneto", "latnew": 45.608798, "lngnew": 10.796180 }, "geometry": { "type": "Point", "coordinates": [ 10.796180129098916, 45.608797509611868 ] } },
{ "type": "Feature", "properties": { "submission": 86, "NAME": "Ospedale di Monselice SPDC", "Latitude": 45.237226, "Longitude": 11.756982, "town": "via G. Marconi, 19", "provincere": "Padova Veneto", "latnew": 45.237011, "lngnew": 11.756991 }, "geometry": { "type": "Point", "coordinates": [ 11.756991320024531, 45.237010979722534 ] } },
{ "type": "Feature", "properties": { "submission": 87, "NAME": "Ospedale di Este Day Hospital Psichiatrico", "Latitude": 45.225853, "Longitude": 11.650091, "town": "Este", "provincere": "Padova Veneto", "latnew": 45.225853, "lngnew": 11.650091 }, "geometry": { "type": "Point", "coordinates": [ 11.650090699999964, 45.2258529 ] } },
{ "type": "Feature", "properties": { "submission": 88, "NAME": "Ospedale di San Donà di Piave", "Latitude": 45.631849, "Longitude": 12.569191, "town": "San Donà di Piave", "provincere": "Venezia Veneto", "latnew": 45.634498, "lngnew": 12.573665 }, "geometry": { "type": "Point", "coordinates": [ 12.573665083625297, 45.63449791444782 ] } },
{ "type": "Feature", "properties": { "submission": 89, "NAME": "Presidio ospedaliero di Portogruaro SPDC", "Latitude": 45.770725, "Longitude": 12.840862, "town": "Portogruaro", "provincere": "Venezia Veneto", "latnew": 45.770725, "lngnew": 12.840862 }, "geometry": { "type": "Point", "coordinates": [ 12.840862, 45.7707252 ] } },
{ "type": "Feature", "properties": { "submission": 90, "NAME": "Ospedale Ca Foncello di Treviso SPDC", "Latitude": 45.659620, "Longitude": 12.261110, "town": "Treviso", "provincere": "Treviso Veneto", "latnew": 45.659620, "lngnew": 12.261110 }, "geometry": { "type": "Point", "coordinates": [ 12.26111, 45.65962 ] } },
{ "type": "Feature", "properties": { "submission": 91, "NAME": "Ospedale Alto Vicentino di Santorso SPDC", "Latitude": 45.728905, "Longitude": 11.411778, "town": "Santorso", "provincere": "Vicenza Veneto", "latnew": 45.727203, "lngnew": 11.414368 }, "geometry": { "type": "Point", "coordinates": [ 11.414367546686172, 45.727203428839545 ] } },
{ "type": "Feature", "properties": { "submission": 92, "NAME": "RSA Residenza Sanitaria Assistenziale di Marzana", "Latitude": 45.500030, "Longitude": 11.016847, "town": "Verona", "provincere": "Verona Veneto", "latnew": 45.500030, "lngnew": 11.016847 }, "geometry": { "type": "Point", "coordinates": [ 11.016846900000019, 45.5000298 ] } },
{ "type": "Feature", "properties": { "submission": 93, "NAME": "Casa di Riposo Domenico Cardo", "Latitude": 45.311476, "Longitude": 11.386789, "town": "Cologna Veneta", "provincere": "Verona Veneto", "latnew": 45.311476, "lngnew": 11.386789 }, "geometry": { "type": "Point", "coordinates": [ 11.386789099999987, 45.3114757 ] } },
{ "type": "Feature", "properties": { "submission": 94, "NAME": "RSA Residenza Sanitaria Assistenziale di Montecchio", "Latitude": 45.509626, "Longitude": 11.398815, "town": "Montecchio Maggiore", "provincere": "Vicenza Veneto", "latnew": 45.509626, "lngnew": 11.398815 }, "geometry": { "type": "Point", "coordinates": [ 11.398815, 45.509626399999988 ] } },
{ "type": "Feature", "properties": { "submission": 95, "NAME": "RSA Residenza sanitaria assistenziale di Lonigo", "Latitude": 45.382134, "Longitude": 11.399390, "town": "Lonigo", "provincere": "Vicenza Veneto", "latnew": 45.382134, "lngnew": 11.399390 }, "geometry": { "type": "Point", "coordinates": [ 11.3993901, 45.3821345 ] } },
{ "type": "Feature", "properties": { "submission": 96, "NAME": "RSA Residenza sanitaria assistenziale Fiordaliso-Margherita", "Latitude": 45.790821, "Longitude": 11.732084, "town": "Romano dezzelino", "provincere": "Vicenza Veneto", "latnew": 45.790821, "lngnew": 11.732084 }, "geometry": { "type": "Point", "coordinates": [ 11.73208360000001, 45.7908213 ] } },
{ "type": "Feature", "properties": { "submission": 97, "NAME": "RSA Residenza sanitaria assistenziale Modulo di Pullir", "Latitude": 46.064620, "Longitude": 11.960390, "town": "Cesiomaggiore", "provincere": "Belluno Veneto", "latnew": 46.064620, "lngnew": 11.960390 }, "geometry": { "type": "Point", "coordinates": [ 11.96039, 46.06462 ] } },
{ "type": "Feature", "properties": { "submission": 98, "NAME": "RSA Residenza sanitaria assistenziale di Feltre", "Latitude": 46.021574, "Longitude": 11.905305, "town": "Feltre", "provincere": "Belluno Veneto", "latnew": 46.023154, "lngnew": 11.908057 }, "geometry": { "type": "Point", "coordinates": [ 11.908056787104009, 46.02315400765621 ] } },
{ "type": "Feature", "properties": { "submission": 99, "NAME": "RSA Residenza sanitaria assistenziale Fabris", "Latitude": 45.900204, "Longitude": 11.992210, "town": "Valdobbiadene", "provincere": "Treviso Veneto", "latnew": 45.900204, "lngnew": 11.992210 }, "geometry": { "type": "Point", "coordinates": [ 11.992209799999955, 45.9002042 ] } },
{ "type": "Feature", "properties": { "submission": 100, "NAME": "Ospedale SantAnna di Como SPDC", "Latitude": 45.817975, "Longitude": 9.058258, "town": "San Fermo della Battaglia", "provincere": "Como Lombardia", "latnew": 45.792974, "lngnew": 9.046601 }, "geometry": { "type": "Point", "coordinates": [ 9.046601002049069, 45.79297442412917 ] } },
{ "type": "Feature", "properties": { "submission": 101, "NAME": "Ospedale SantAntonio Abate di Cantù SPDC", "Latitude": 45.738732, "Longitude": 9.140400, "town": "Cantu", "provincere": "Como Lombardia", "latnew": 45.738732, "lngnew": 9.140400 }, "geometry": { "type": "Point", "coordinates": [ 9.140400399999976, 45.7387319 ] } },
{ "type": "Feature", "properties": { "submission": 102, "NAME": "Ospedale Erba Renaldi di Menaggio SPDC", "Latitude": 46.018099, "Longitude": 9.229151, "town": "Menaggio", "provincere": "Como Lombardia", "latnew": 46.018099, "lngnew": 9.229151 }, "geometry": { "type": "Point", "coordinates": [ 9.229151099999967, 46.0180985 ] } },
{ "type": "Feature", "properties": { "submission": 103, "NAME": "Ospedale Pesenti-Fenaroli di Alzano Lombardo SPDC A", "Latitude": 45.730800, "Longitude": 9.726020, "town": "Alzano lombardo", "provincere": "Bergamo Lombardia", "latnew": 45.730800, "lngnew": 9.726020 }, "geometry": { "type": "Point", "coordinates": [ 9.72602, 45.7308 ] } },
{ "type": "Feature", "properties": { "submission": 106, "NAME": "AZIENDA OSPEDALIERA OSPEDALI RIUNITI DI BERGAMO SPDC 1", "Latitude": 45.699430, "Longitude": 9.653043, "town": "Bergamo", "provincere": "Bergamo Lombardia", "latnew": 45.699430, "lngnew": 9.653043 }, "geometry": { "type": "Point", "coordinates": [ 9.653043, 45.69943 ] } },
{ "type": "Feature", "properties": { "submission": 105, "NAME": "Ospedale Pesenti-Fenaroli di Alzano Lombardo SPDC B", "Latitude": 45.730800, "Longitude": 9.726020, "town": "Alzano lombardo", "provincere": "Bergamo Lombardia", "latnew": 45.730800, "lngnew": 9.726020 }, "geometry": { "type": "Point", "coordinates": [ 9.72602, 45.7308 ] } },
{ "type": "Feature", "properties": { "submission": 107, "NAME": "AZIENDA OSPEDALIERA OSPEDALI RIUNITI DI BERGAMO SPDC 2", "Latitude": 45.699430, "Longitude": 9.653043, "town": "Bergamo", "provincere": "Bergamo Lombardia", "latnew": 45.699430, "lngnew": 9.653043 }, "geometry": { "type": "Point", "coordinates": [ 9.653043, 45.69943 ] } },
{ "type": "Feature", "properties": { "submission": 108, "NAME": "Ospedale di Treviglio-Caravaggio SPDC", "Latitude": 45.510662, "Longitude": 9.614170, "town": "Treviglio", "provincere": "Bergamo Lombardia", "latnew": 45.510662, "lngnew": 9.614170 }, "geometry": { "type": "Point", "coordinates": [ 9.614169800000013, 45.5106623 ] } },
{ "type": "Feature", "properties": { "submission": 109, "NAME": "Ospedale di Montichiari SPDC", "Latitude": 45.411163, "Longitude": 10.405716, "town": "Montichiari", "provincere": "Brescia Lombardia", "latnew": 45.409900, "lngnew": 10.409029 }, "geometry": { "type": "Point", "coordinates": [ 10.409029268554375, 45.409900262716853 ] } },
{ "type": "Feature", "properties": { "submission": 110, "NAME": "Spedali civili di Brescia SPDC", "Latitude": 45.557286, "Longitude": 10.230986, "town": "Brescia", "provincere": "Brescia Lombardia", "latnew": 45.557286, "lngnew": 10.230986 }, "geometry": { "type": "Point", "coordinates": [ 10.230986300000041, 45.5572864 ] } },
{ "type": "Feature", "properties": { "submission": 111, "NAME": "OSPEDALE CIVILE LA MEMORIA DI GAVARDO SPDC", "Latitude": 45.588430, "Longitude": 10.438596, "town": "Gavardo", "provincere": "Brescia Lombardia", "latnew": 45.588430, "lngnew": 10.438596 }, "geometry": { "type": "Point", "coordinates": [ 10.4385959, 45.5884298 ] } },
{ "type": "Feature", "properties": { "submission": 112, "NAME": "Ospedale di Leno SPDC", "Latitude": 45.365920, "Longitude": 10.217680, "town": "Leno", "provincere": "Brescia Lombardia", "latnew": 45.365920, "lngnew": 10.217680 }, "geometry": { "type": "Point", "coordinates": [ 10.21768, 45.36592 ] } },
{ "type": "Feature", "properties": { "submission": 113, "NAME": "Ospedale Civile di Iseo SPDC", "Latitude": 45.663215, "Longitude": 10.051594, "town": "Iseo", "provincere": "Brescia Lombardia", "latnew": 45.663215, "lngnew": 10.051594 }, "geometry": { "type": "Point", "coordinates": [ 10.051593599999933, 45.6632147 ] } },
{ "type": "Feature", "properties": { "submission": 114, "NAME": "Ospedale di Cremona SPDC", "Latitude": 45.128713, "Longitude": 10.052094, "town": "Cremona", "provincere": "Cremona Lombardia", "latnew": 45.128713, "lngnew": 10.052094 }, "geometry": { "type": "Point", "coordinates": [ 10.0520937, 45.1287128 ] } },
{ "type": "Feature", "properties": { "submission": 115, "NAME": "Ospedale Maggiore di Crema SPDC", "Latitude": 45.354430, "Longitude": 9.681240, "town": "Crema", "provincere": "Cremona Lombardia", "latnew": 45.354430, "lngnew": 9.681240 }, "geometry": { "type": "Point", "coordinates": [ 9.68124, 45.35443 ] } },
{ "type": "Feature", "properties": { "submission": 116, "NAME": "Ospedale Oglio di Po SPDC", "Latitude": 44.974690, "Longitude": 10.459073, "town": "Casalmaggiore", "provincere": "Cremona Lombardia", "latnew": 44.975478, "lngnew": 10.467679 }, "geometry": { "type": "Point", "coordinates": [ 10.467679302604918, 44.975478078839998 ] } },
{ "type": "Feature", "properties": { "submission": 117, "NAME": "Ospedale Alessandro Manzoni di Lecco SPDC", "Latitude": 45.852115, "Longitude": 9.415124, "town": "Lecco", "provincere": "Lecco Lombardia", "latnew": 45.852115, "lngnew": 9.415124 }, "geometry": { "type": "Point", "coordinates": [ 9.4151243, 45.8521147 ] } },
{ "type": "Feature", "properties": { "submission": 118, "NAME": "Ospedale Leopoldo Mandic di Merate SPDC", "Latitude": 45.697793, "Longitude": 9.427361, "town": "Merate", "provincere": "Lecco Lombardia", "latnew": 45.697793, "lngnew": 9.427361 }, "geometry": { "type": "Point", "coordinates": [ 9.4273612, 45.6977932 ] } },
{ "type": "Feature", "properties": { "submission": 119, "NAME": "Ospedale di Codogno SPDC", "Latitude": 45.160000, "Longitude": 9.712197, "town": "Codogno", "provincere": "Lodi Lombardia", "latnew": 45.160000, "lngnew": 9.712197 }, "geometry": { "type": "Point", "coordinates": [ 9.71219670000005, 45.1599996 ] } },
{ "type": "Feature", "properties": { "submission": 120, "NAME": "Ospedale Carlo Poma di Mantova SPDC", "Latitude": 45.144840, "Longitude": 10.774300, "town": "Mantova", "provincere": "Mantova Lombardia", "latnew": 45.144840, "lngnew": 10.774300 }, "geometry": { "type": "Point", "coordinates": [ 10.7743, 45.14484 ] } },
{ "type": "Feature", "properties": { "submission": 123, "NAME": "Ospedale di Pieve di Coriano SPDC", "Latitude": 45.036197, "Longitude": 11.116988, "town": "Pieve di Coriano", "provincere": "Mantova Lombardia", "latnew": 45.036197, "lngnew": 11.116988 }, "geometry": { "type": "Point", "coordinates": [ 11.116987900000026, 45.036197 ] } },
{ "type": "Feature", "properties": { "submission": 122, "NAME": "OSPEDALE VALCAMONICA - ESINE SPDC", "Latitude": 45.929317, "Longitude": 10.269456, "town": "Esine", "provincere": "Brescia Lombardia", "latnew": 45.928151, "lngnew": 10.247788 }, "geometry": { "type": "Point", "coordinates": [ 10.247788424052391, 45.928151485421417 ] } },
{ "type": "Feature", "properties": { "submission": 124, "NAME": "Policlinico S. Matteo di Pavia SPDC", "Latitude": 45.198433, "Longitude": 9.144860, "town": "Pavia", "provincere": "Pavia Lombardia", "latnew": 45.198433, "lngnew": 9.144860 }, "geometry": { "type": "Point", "coordinates": [ 9.14486, 45.1984333 ] } },
{ "type": "Feature", "properties": { "submission": 125, "NAME": "Ospedale Voghera SPDC", "Latitude": 44.993850, "Longitude": 9.014496, "town": "Voghera", "provincere": "Pavia Lombardia", "latnew": 44.994790, "lngnew": 9.014522 }, "geometry": { "type": "Point", "coordinates": [ 9.014521814848393, 44.994789655698924 ] } },
{ "type": "Feature", "properties": { "submission": 126, "NAME": "Ospedale di Vigevano SPDC", "Latitude": 45.321185, "Longitude": 8.865292, "town": "Vigevano", "provincere": "Pavia Lombardia", "latnew": 45.321185, "lngnew": 8.865292 }, "geometry": { "type": "Point", "coordinates": [ 8.865291899999988, 45.3211853 ] } },
{ "type": "Feature", "properties": { "submission": 127, "NAME": "Ospedale di Sondrio SPDC", "Latitude": 46.170907, "Longitude": 9.880079, "town": "Sondrio", "provincere": "Sondrio Lombardia", "latnew": 46.170907, "lngnew": 9.880079 }, "geometry": { "type": "Point", "coordinates": [ 9.8800794, 46.1709074 ] } },
{ "type": "Feature", "properties": { "submission": 128, "NAME": "Ospedale di Morbegno SPDC", "Latitude": 46.132130, "Longitude": 9.573210, "town": "Morbegno", "provincere": "Sondrio Lombardia", "latnew": 46.132130, "lngnew": 9.573210 }, "geometry": { "type": "Point", "coordinates": [ 9.57321, 46.1321299 ] } },
{ "type": "Feature", "properties": { "submission": 129, "NAME": "Ospedale di Circolo e Fondazione Macchi Varese SPDC", "Latitude": 45.807885, "Longitude": 8.837588, "town": "Varese", "provincere": "Varese Lombardia", "latnew": 45.807885, "lngnew": 8.837588 }, "geometry": { "type": "Point", "coordinates": [ 8.8375883, 45.8078852 ] } },
{ "type": "Feature", "properties": { "submission": 130, "NAME": "Ospedale Causa Pia Luvini di Cittiglio SPDC", "Latitude": 45.894337, "Longitude": 8.667108, "town": "Cittiglio", "provincere": "Varese Lombardia", "latnew": 45.894337, "lngnew": 8.667108 }, "geometry": { "type": "Point", "coordinates": [ 8.6671078, 45.8943372 ] } },
{ "type": "Feature", "properties": { "submission": 131, "NAME": "Ospedale S. Antonio Abate di Gallarate SPDC", "Latitude": 45.655655, "Longitude": 8.792948, "town": "Gallarate", "provincere": "Varese Lombardia", "latnew": 45.656501, "lngnew": 8.791929 }, "geometry": { "type": "Point", "coordinates": [ 8.791929357369797, 45.656500577313608 ] } },
{ "type": "Feature", "properties": { "submission": 132, "NAME": "Ospedale di circolo di Busto Arsizio SPDC", "Latitude": 45.621450, "Longitude": 8.847380, "town": "Busto Arsizio", "provincere": "Varese Lombardia", "latnew": 45.621450, "lngnew": 8.847380 }, "geometry": { "type": "Point", "coordinates": [ 8.84738, 45.62145 ] } },
{ "type": "Feature", "properties": { "submission": 133, "NAME": "Ospedale di Saronno SPDC", "Latitude": 45.629213, "Longitude": 9.040573, "town": "Saronno", "provincere": "Varese Lombardia", "latnew": 45.629213, "lngnew": 9.040573 }, "geometry": { "type": "Point", "coordinates": [ 9.040573, 45.629213 ] } },
{ "type": "Feature", "properties": { "submission": 134, "NAME": "Ospedale civile di Vimercate SPDC", "Latitude": 45.611975, "Longitude": 9.367702, "town": "Vimercate", "provincere": "Monza Brianza Lombardia", "latnew": 45.608113, "lngnew": 9.356354 }, "geometry": { "type": "Point", "coordinates": [ 9.356353680230129, 45.608113065844464 ] } },
{ "type": "Feature", "properties": { "submission": 135, "NAME": "Ospedale di Desio SPDC", "Latitude": 45.625988, "Longitude": 9.197776, "town": "Desio", "provincere": "Monza Brianza Lombardia", "latnew": 45.625988, "lngnew": 9.197776 }, "geometry": { "type": "Point", "coordinates": [ 9.197775699999966, 45.625987900000013 ] } },
{ "type": "Feature", "properties": { "submission": 136, "NAME": "Ospedale nuovo San Gerardo di Monza SPDC", "Latitude": 45.602063, "Longitude": 9.261868, "town": "Monza", "provincere": "Monza Brianza Lombardia", "latnew": 45.602209, "lngnew": 9.259952 }, "geometry": { "type": "Point", "coordinates": [ 9.25995192181407, 45.602208912185517 ] } },
{ "type": "Feature", "properties": { "submission": 137, "NAME": "Ospedale di Garbagnate Milanese SPDC", "Latitude": 45.580996, "Longitude": 9.087878, "town": "Garbagnate", "provincere": "Milano Lombardia", "latnew": 45.581662, "lngnew": 9.096694 }, "geometry": { "type": "Point", "coordinates": [ 9.096693542762548, 45.581662302897861 ] } },
{ "type": "Feature", "properties": { "submission": 138, "NAME": "Ospedale Casati di Passirana di Rho SPDC", "Latitude": 45.546544, "Longitude": 9.045333, "town": "Passirana di Rho", "provincere": "Milano Lombardia", "latnew": 45.546544, "lngnew": 9.045333 }, "geometry": { "type": "Point", "coordinates": [ 9.0453334, 45.5465443 ] } },
{ "type": "Feature", "properties": { "submission": 139, "NAME": "Ospedale vecchio di Legnano SPDC", "Latitude": 45.594799, "Longitude": 8.928797, "town": "Legnano", "provincere": "Milano Lombardia", "latnew": 45.595311, "lngnew": 8.931305 }, "geometry": { "type": "Point", "coordinates": [ 8.931304796897919, 45.595310807340056 ] } },
{ "type": "Feature", "properties": { "submission": 140, "NAME": "Ospedale Civile Giuseppe Fornaroli di Magenta SPDC", "Latitude": 45.467707, "Longitude": 8.892433, "town": "Magenta", "provincere": "Milano Lombardia", "latnew": 45.470568, "lngnew": 8.892159 }, "geometry": { "type": "Point", "coordinates": [ 8.892158608283525, 45.470568439588952 ] } },
{ "type": "Feature", "properties": { "submission": 141, "NAME": "OSPEDALE DI VIZZOLO PREDABISSI SPDC", "Latitude": 45.358770, "Longitude": 9.340190, "town": "Vizzolo Predabissi", "provincere": "Milano Lombardia", "latnew": 45.358770, "lngnew": 9.340190 }, "geometry": { "type": "Point", "coordinates": [ 9.34019, 45.35877 ] } },
{ "type": "Feature", "properties": { "submission": 142, "NAME": "Ospedale di Melzo SPDC", "Latitude": 45.507756, "Longitude": 9.427635, "town": "Melzo", "provincere": "Milano Lombardia", "latnew": 45.507756, "lngnew": 9.427635 }, "geometry": { "type": "Point", "coordinates": [ 9.427635, 45.507756 ] } },
{ "type": "Feature", "properties": { "submission": 143, "NAME": "Ospedale città di Sesto San Giovanni SPDC", "Latitude": 45.534849, "Longitude": 9.224402, "town": "Sesto San Giovanni", "provincere": "Milano Lombardia", "latnew": 45.536521, "lngnew": 9.224228 }, "geometry": { "type": "Point", "coordinates": [ 9.224228047437631, 45.536520632374604 ] } },
{ "type": "Feature", "properties": { "submission": 144, "NAME": "Ospedale Policlinico Maggiore di Milano SPDC", "Latitude": 45.459901, "Longitude": 9.195596, "town": "Milano", "provincere": "Milano Lombardia", "latnew": 45.458252, "lngnew": 9.196877 }, "geometry": { "type": "Point", "coordinates": [ 9.196876521333262, 45.458251823029485 ] } },
{ "type": "Feature", "properties": { "submission": 145, "NAME": "Ospedale Niguarda Ca Granda SPDC 1", "Latitude": 45.508150, "Longitude": 9.189089, "town": "Milano", "provincere": "Milano Lombardia", "latnew": 45.508150, "lngnew": 9.189089 }, "geometry": { "type": "Point", "coordinates": [ 9.189088699999957, 45.5081498 ] } },
{ "type": "Feature", "properties": { "submission": 146, "NAME": "Ospedale Luigi Sacco di Milano SPDC", "Latitude": 45.517814, "Longitude": 9.119817, "town": "Milano", "provincere": "Milano Lombardia", "latnew": 45.517814, "lngnew": 9.119817 }, "geometry": { "type": "Point", "coordinates": [ 9.1198167, 45.5178141 ] } },
{ "type": "Feature", "properties": { "submission": 147, "NAME": "Ospedale Niguarda Ca Granda SPDC 2", "Latitude": 45.508150, "Longitude": 9.189089, "town": "Milano", "provincere": "Milano Lombardia", "latnew": 45.508150, "lngnew": 9.189089 }, "geometry": { "type": "Point", "coordinates": [ 9.189088699999957, 45.5081498 ] } },
{ "type": "Feature", "properties": { "submission": 148, "NAME": "Ospedale Niguarda Ca Granda SPDC 3", "Latitude": 45.508150, "Longitude": 9.189089, "town": "Milano", "provincere": "Milano Lombardia", "latnew": 45.508150, "lngnew": 9.189089 }, "geometry": { "type": "Point", "coordinates": [ 9.189088699999957, 45.5081498 ] } },
{ "type": "Feature", "properties": { "submission": 149, "NAME": "Ospedale Fatebenefratelli di Milano SPDC", "Latitude": 45.478601, "Longitude": 9.192172, "town": "Milano", "provincere": "Milano Lombardia", "latnew": 45.478601, "lngnew": 9.192172 }, "geometry": { "type": "Point", "coordinates": [ 9.1921724, 45.4786006 ] } },
{ "type": "Feature", "properties": { "submission": 150, "NAME": "Ospedale San Paolo di Milano SPDC 1", "Latitude": 45.433142, "Longitude": 9.158867, "town": "Milano", "provincere": "Milano Lombardia", "latnew": 45.433142, "lngnew": 9.158867 }, "geometry": { "type": "Point", "coordinates": [ 9.158867099999952, 45.4331419 ] } },
{ "type": "Feature", "properties": { "submission": 151, "NAME": "Ospedale San Paolo di Milano SPDC 2", "Latitude": 45.433142, "Longitude": 9.158867, "town": "Milano", "provincere": "Milano Lombardia", "latnew": 45.433142, "lngnew": 9.158867 }, "geometry": { "type": "Point", "coordinates": [ 9.158867099999952, 45.4331419 ] } },
{ "type": "Feature", "properties": { "submission": 152, "NAME": "Ospedale S.CARLO BORROMEO MILANO  SPDC           \n", "Latitude": 45.470106, "Longitude": 9.112952, "town": "Milano", "provincere": "Milano Lombardia", "latnew": 45.470106, "lngnew": 9.112952 }, "geometry": { "type": "Point", "coordinates": [ 9.112951899999985, 45.4701058 ] } },
{ "type": "Feature", "properties": { "submission": 153, "NAME": "Ospedale Bassini di Cinisello Balsamo SPDC", "Latitude": 45.547207, "Longitude": 9.218040, "town": "CINISELLO BALSAMO", "provincere": "Milano Lombardia", "latnew": 45.546542, "lngnew": 9.215663 }, "geometry": { "type": "Point", "coordinates": [ 9.215662817523848, 45.546541899116534 ] } },
{ "type": "Feature", "properties": { "submission": 154, "NAME": "CENTRO S. GIOVANNI DI DIO FATEBENEFRATELLI Brescia\n", "Latitude": 45.191145, "Longitude": 9.185307, "town": "Brescia", "provincere": "Brescia Lombardia", "latnew": 45.191145, "lngnew": 9.185307 }, "geometry": { "type": "Point", "coordinates": [ 9.185306500000024, 45.1911446 ] } },
{ "type": "Feature", "properties": { "submission": 155, "NAME": "Clinica Le Betulle Casa di Cura Privata di Como", "Latitude": 45.731588, "Longitude": 8.994214, "town": "Appiano gentile", "provincere": "Como Lombardia", "latnew": 45.731588, "lngnew": 8.994214 }, "geometry": { "type": "Point", "coordinates": [ 8.994214300000067, 45.7315884 ] } },
{ "type": "Feature", "properties": { "submission": 156, "NAME": "Ospedale Maggiore di Trieste SPDC", "Latitude": 45.649950, "Longitude": 13.780132, "town": "Trieste", "provincere": "Trieste Friuli Venezia Giulia", "latnew": 45.649950, "lngnew": 13.780132 }, "geometry": { "type": "Point", "coordinates": [ 13.7801317, 45.64995 ] } },
{ "type": "Feature", "properties": { "submission": 157, "NAME": "Presidio Ospedaliero S. Antonio di S. Daniele del Friuli SPDC", "Latitude": 46.154365, "Longitude": 13.009885, "town": "San Daniele del Friuli", "provincere": "Udine Friuli Venezia Giulia", "latnew": 46.154455, "lngnew": 13.009668 }, "geometry": { "type": "Point", "coordinates": [ 13.009667509297042, 46.154455478864101 ] } },
{ "type": "Feature", "properties": { "submission": 158, "NAME": "AZIENDA OSPEDALIERA S. MARIA DEGLI ANGELI di Pordenone SPDC\n", "Latitude": 45.966146, "Longitude": 12.653186, "town": "Pordenone", "provincere": "Pordenone Friuli Venezia Giulia", "latnew": 45.968494, "lngnew": 12.652159 }, "geometry": { "type": "Point", "coordinates": [ 12.652158999882062, 45.968494430521979 ] } },
{ "type": "Feature", "properties": { "submission": 159, "NAME": "Ospedale di Cividale SPDC", "Latitude": 46.090913, "Longitude": 13.434524, "town": "Cividale del Friuli", "provincere": "Udine Friuli Venezia Giulia", "latnew": 46.092356, "lngnew": 13.437284 }, "geometry": { "type": "Point", "coordinates": [ 13.437284318113313, 46.092356273529447 ] } },
{ "type": "Feature", "properties": { "submission": 160, "NAME": "Ospedale Santa Chiara di Trento SPDC", "Latitude": 46.057540, "Longitude": 11.132840, "town": "Trento", "provincere": "Trento Trentino Alto Adige", "latnew": 46.057540, "lngnew": 11.132840 }, "geometry": { "type": "Point", "coordinates": [ 11.13284, 46.05754 ] } },
{ "type": "Feature", "properties": { "submission": 161, "NAME": "Presidio Ospedaliero di Borgo Valsugana SPDC", "Latitude": 46.056449, "Longitude": 11.462947, "town": "Borgo Valsugana", "provincere": "Trento Trentino Alto Adige", "latnew": 46.056449, "lngnew": 11.462947 }, "geometry": { "type": "Point", "coordinates": [ 11.462947, 46.056449 ] } },
{ "type": "Feature", "properties": { "submission": 162, "NAME": "Ospedale di Arco SPDC", "Latitude": 45.918847, "Longitude": 10.876213, "town": "Arco", "provincere": "Trento Trentino Alto Adige", "latnew": 45.918847, "lngnew": 10.876213 }, "geometry": { "type": "Point", "coordinates": [ 10.876212500000065, 45.9188471 ] } },
{ "type": "Feature", "properties": { "submission": 168, "NAME": "Ospedale Civile Giuseppe Mazzini di Teramo SPDC", "Latitude": 42.665624, "Longitude": 13.713972, "town": "Teramo", "provincere": "Teramo Abruzzo", "latnew": 42.665624, "lngnew": 13.713972 }, "geometry": { "type": "Point", "coordinates": [ 13.713972099999978, 42.6656244 ] } },
{ "type": "Feature", "properties": { "submission": 163, "NAME": "Ospedale di Bolzano SPDC", "Latitude": 46.499228, "Longitude": 11.309484, "town": "Bolzano", "provincere": "Bolzano Trentino AltoAdige", "latnew": 46.499228, "lngnew": 11.309484 }, "geometry": { "type": "Point", "coordinates": [ 11.309483699999987, 46.4992283 ] } },
{ "type": "Feature", "properties": { "submission": 164, "NAME": "Ospedale di Merano SPDC", "Latitude": 46.677486, "Longitude": 11.152929, "town": "Merano", "provincere": "Bolzano Trentino AltoAdige", "latnew": 46.677486, "lngnew": 11.152929 }, "geometry": { "type": "Point", "coordinates": [ 11.1529286, 46.6774859 ] } },
{ "type": "Feature", "properties": { "submission": 165, "NAME": "Ospedale di Bressanone SPDC", "Latitude": 46.724306, "Longitude": 11.649125, "town": "Bressanone", "provincere": "Bolzano Trentino AltoAdige", "latnew": 46.724306, "lngnew": 11.649125 }, "geometry": { "type": "Point", "coordinates": [ 11.649124900000061, 46.7243061 ] } },
{ "type": "Feature", "properties": { "submission": 166, "NAME": "Ospedale di Brunico SPDC", "Latitude": 46.799999, "Longitude": 11.937627, "town": "Brunico", "provincere": "Bolzano Trentino AltoAdige", "latnew": 46.799999, "lngnew": 11.937627 }, "geometry": { "type": "Point", "coordinates": [ 11.937627300000031, 46.799999199999988 ] } },
{ "type": "Feature", "properties": { "submission": 167, "NAME": "Ospedale San Salvatore LAQUILA SPDC", "Latitude": 42.366014, "Longitude": 13.353032, "town": "LAquila", "provincere": "LAquila Abruzzo", "latnew": 42.366014, "lngnew": 13.353032 }, "geometry": { "type": "Point", "coordinates": [ 13.3530316, 42.366013900000013 ] } },
{ "type": "Feature", "properties": { "submission": 169, "NAME": "Ospedale civile Maria SS. dello Splendore SPDC", "Latitude": 42.749492, "Longitude": 13.959623, "town": "GIULIANOVA", "provincere": "Teramo Abruzzo", "latnew": 42.745891, "lngnew": 13.961680 }, "geometry": { "type": "Point", "coordinates": [ 13.961679987873723, 42.745891108548783 ] } },
{ "type": "Feature", "properties": { "submission": 170, "NAME": "Ospedale Spirito Santo di Pescara SPDC", "Latitude": 42.462501, "Longitude": 14.199090, "town": "Pescara", "provincere": "Pescara Abruzzo", "latnew": 42.462501, "lngnew": 14.199090 }, "geometry": { "type": "Point", "coordinates": [ 14.199090100000035, 42.462501499999988 ] } },
{ "type": "Feature", "properties": { "submission": 171, "NAME": "Ospedale Floraspe Renzetti di Lanciano SPDC", "Latitude": 42.230564, "Longitude": 14.396440, "town": "Lanciano", "provincere": "Chieti Abruzzo", "latnew": 42.230564, "lngnew": 14.396440 }, "geometry": { "type": "Point", "coordinates": [ 14.3964396, 42.230564 ] } },
{ "type": "Feature", "properties": { "submission": 172, "NAME": "Ospedale M. SS. IMMACOLATA DI GUARDIAGRELE SPDC\n", "Latitude": 42.196805, "Longitude": 14.218983, "town": "GUARDIAGRELE", "provincere": "Chieti Abruzzo", "latnew": 42.201681, "lngnew": 14.217423 }, "geometry": { "type": "Point", "coordinates": [ 14.217423265862442, 42.201681377111306 ] } },
{ "type": "Feature", "properties": { "submission": 173, "NAME": "PRESIDIO OSPEDALIERO A.CARDARELLI Campobasso SPDC", "Latitude": 41.551726, "Longitude": 14.620890, "town": "Campobasso", "provincere": "Campobasso Molise", "latnew": 41.548234, "lngnew": 14.621239 }, "geometry": { "type": "Point", "coordinates": [ 14.621238705124714, 41.548233504444951 ] } },
{ "type": "Feature", "properties": { "submission": 174, "NAME": "Ospedale San TIMOTEO di TERMOLI SPDC", "Latitude": 41.986810, "Longitude": 14.997058, "town": "Termoli", "provincere": "Campobasso Molise", "latnew": 41.988337, "lngnew": 14.991485 }, "geometry": { "type": "Point", "coordinates": [ 14.99148511800473, 41.988337361311672 ] } },
{ "type": "Feature", "properties": { "submission": 175, "NAME": "Ospedale di Isernia SPDC", "Latitude": 41.581042, "Longitude": 14.218290, "town": "Isernia", "provincere": "Isernia Molise", "latnew": 41.582837, "lngnew": 14.222336 }, "geometry": { "type": "Point", "coordinates": [ 14.22233560281823, 41.582837456443912 ] } },
{ "type": "Feature", "properties": { "submission": 176, "NAME": "Ospedale di Villa dAgri SPDC", "Latitude": 40.361235, "Longitude": 15.825095, "town": "Marsicovetere", "provincere": "Potenza Basilicata", "latnew": 40.361235, "lngnew": 15.825095 }, "geometry": { "type": "Point", "coordinates": [ 15.8250953, 40.3612355 ] } },
{ "type": "Feature", "properties": { "submission": 177, "NAME": "Ospedale Giovanni Paolo II Policoro SPDC", "Latitude": 40.212015, "Longitude": 16.662417, "town": "Policoro", "provincere": "Matera Basilicata", "latnew": 40.213053, "lngnew": 16.673005 }, "geometry": { "type": "Point", "coordinates": [ 16.673005175791083, 40.213052641061438 ] } },
{ "type": "Feature", "properties": { "submission": 181, "NAME": "Ospedale San Giovanni di Dio Di Melfi SPDC", "Latitude": 40.996128, "Longitude": 15.641251, "town": "Melfi", "provincere": "Matera Basilicata", "latnew": 40.996128, "lngnew": 15.641251 }, "geometry": { "type": "Point", "coordinates": [ 15.641251399999987, 40.996128 ] } },
{ "type": "Feature", "properties": { "submission": 180, "NAME": "Ospedale San Carlo di Potenza SPDC", "Latitude": 40.653188, "Longitude": 15.805335, "town": "Potenza", "provincere": "Potenza Basilicata", "latnew": 40.653188, "lngnew": 15.805335 }, "geometry": { "type": "Point", "coordinates": [ 15.805334899999934, 40.6531875 ] } },
{ "type": "Feature", "properties": { "submission": 182, "NAME": "OSPEDALE MADONNA DELLE GRAZIE di Matera SPDC", "Latitude": 40.666379, "Longitude": 16.604320, "town": "Matera", "provincere": "Matera Basilicata", "latnew": 40.653270, "lngnew": 16.611829 }, "geometry": { "type": "Point", "coordinates": [ 16.611828635739013, 40.653270254200329 ] } },
{ "type": "Feature", "properties": { "submission": 183, "NAME": "Ospedale SS. Antonio e Biagio e Cesare Arrigo di Alessandria SPDC", "Latitude": 44.915191, "Longitude": 8.621346, "town": "Alessandria", "provincere": "Alessandria Piemonte", "latnew": 44.915191, "lngnew": 8.621346 }, "geometry": { "type": "Point", "coordinates": [ 8.621346099999983, 44.9151913 ] } },
{ "type": "Feature", "properties": { "submission": 184, "NAME": "Ospedale Santo Spirito Casale Monferrato SPDC", "Latitude": 45.121826, "Longitude": 8.444572, "town": "Casale Monferrato", "provincere": "Alessandria Piemonte", "latnew": 45.121372, "lngnew": 8.447080 }, "geometry": { "type": "Point", "coordinates": [ 8.447079696897912, 45.121371833628132 ] } },
{ "type": "Feature", "properties": { "submission": 185, "NAME": "Ospedale S. Maria della Misericordia di Urbino SPDC", "Latitude": 43.733072, "Longitude": 12.631902, "town": "Urbino", "provincere": "Pesaro-Urbino Marche", "latnew": 43.733072, "lngnew": 12.631902 }, "geometry": { "type": "Point", "coordinates": [ 12.6319019, 43.7330725 ] } },
{ "type": "Feature", "properties": { "submission": 186, "NAME": "Ospedale di Senigallia SPDC", "Latitude": 43.714547, "Longitude": 13.210848, "town": "Senigallia", "provincere": "Ancona Marche", "latnew": 43.714547, "lngnew": 13.210848 }, "geometry": { "type": "Point", "coordinates": [ 13.210848, 43.714547 ] } },
{ "type": "Feature", "properties": { "submission": 187, "NAME": "Ospedale S. Giacomo di Novi Ligure SPDC", "Latitude": 44.759859, "Longitude": 8.791514, "town": "Novi Ligure", "provincere": "Alessandria Piemonte", "latnew": 44.759859, "lngnew": 8.791514 }, "geometry": { "type": "Point", "coordinates": [ 8.791513799999962, 44.7598589 ] } },
{ "type": "Feature", "properties": { "submission": 188, "NAME": "Ospedale civile di Jesi SPDC", "Latitude": 43.519250, "Longitude": 13.235930, "town": "Jesi", "provincere": "Ancona Marche", "latnew": 43.519250, "lngnew": 13.235930 }, "geometry": { "type": "Point", "coordinates": [ 13.23593, 43.51925 ] } },
{ "type": "Feature", "properties": { "submission": 189, "NAME": "Ospedale di Civitanova Marche SPDC", "Latitude": 43.309159, "Longitude": 13.695361, "town": "Civitanova", "provincere": "Macerata Marche", "latnew": 43.309159, "lngnew": 13.695361 }, "geometry": { "type": "Point", "coordinates": [ 13.695360899999969, 43.3091592 ] } },
{ "type": "Feature", "properties": { "submission": 190, "NAME": "Ospedale di Macerata SPDC", "Latitude": 43.293826, "Longitude": 13.457756, "town": "Macerata", "provincere": "Macerata Marche", "latnew": 43.293826, "lngnew": 13.457756 }, "geometry": { "type": "Point", "coordinates": [ 13.457755600000041, 43.2938264 ] } },
{ "type": "Feature", "properties": { "submission": 191, "NAME": "Ospedale di Fermo SPC", "Latitude": 43.162022, "Longitude": 13.704461, "town": "Fermo", "provincere": "Fermo Marche", "latnew": 43.162022, "lngnew": 13.704461 }, "geometry": { "type": "Point", "coordinates": [ 13.704461300000048, 43.1620216 ] } },
{ "type": "Feature", "properties": { "submission": 192, "NAME": "Ospedale Madonna del soccorso di San Benedetto del Tronto SPDC", "Latitude": 42.946591, "Longitude": 13.878702, "town": "San Benedetto del Tronto", "provincere": "AscoliPiceno Marche", "latnew": 42.947881, "lngnew": 13.876908 }, "geometry": { "type": "Point", "coordinates": [ 13.876908052392208, 42.947881417342728 ] } },
{ "type": "Feature", "properties": { "submission": 193, "NAME": "Ospedale di Ascoli Piceno SPDC", "Latitude": 42.851941, "Longitude": 13.619460, "town": "Ascoli Piceno", "provincere": "AscoliPiceno Marche", "latnew": 42.851941, "lngnew": 13.619460 }, "geometry": { "type": "Point", "coordinates": [ 13.61946, 42.851941 ] } },
{ "type": "Feature", "properties": { "submission": 194, "NAME": "Ospedale di Pesaro (sede Muraglia) SPDC", "Latitude": 43.889722, "Longitude": 12.926607, "town": "Pesaro", "provincere": "Pesaro-Urbino Marche", "latnew": 43.889114, "lngnew": 12.929520 }, "geometry": { "type": "Point", "coordinates": [ 12.929519985858843, 43.889113978830373 ] } },
{ "type": "Feature", "properties": { "submission": 195, "NAME": "Ospedali riuniti di Ancona SPDC", "Latitude": 43.603235, "Longitude": 13.453337, "town": "Ancona", "provincere": "Ancona Marche", "latnew": 43.603235, "lngnew": 13.453337 }, "geometry": { "type": "Point", "coordinates": [ 13.4533373, 43.603235 ] } },
{ "type": "Feature", "properties": { "submission": 196, "NAME": "Ospedale civile SS Annunziata di Sassari SPDC", "Latitude": 40.718036, "Longitude": 8.554093, "town": "Sassari", "provincere": "Sassari Sardegna", "latnew": 40.718036, "lngnew": 8.554093 }, "geometry": { "type": "Point", "coordinates": [ 8.554093200000011, 40.7180358 ] } },
{ "type": "Feature", "properties": { "submission": 197, "NAME": "Ospedale GIOVANNI PAOLO II di OLBIA SPDC            \n", "Latitude": 40.913931, "Longitude": 9.476316, "town": "Olbia", "provincere": "Olbia-Tempio Sardegna", "latnew": 40.911939, "lngnew": 9.472620 }, "geometry": { "type": "Point", "coordinates": [ 9.472620480568603, 40.911938622437447 ] } },
{ "type": "Feature", "properties": { "submission": 198, "NAME": "Ospedale San Francesco di Nuoro SPDC", "Latitude": 40.326549, "Longitude": 9.317506, "town": "Nuoro", "provincere": "Nuoro Sardegna", "latnew": 40.325964, "lngnew": 9.317307 }, "geometry": { "type": "Point", "coordinates": [ 9.317306583599146, 40.325964064573284 ] } },
{ "type": "Feature", "properties": { "submission": 199, "NAME": "Ospedale Sirai di Carbonia SPDC", "Latitude": 39.183875, "Longitude": 8.507350, "town": "Carbonia", "provincere": "Carbonia-Iglesias Sardegna", "latnew": 39.183875, "lngnew": 8.507350 }, "geometry": { "type": "Point", "coordinates": [ 8.5073504, 39.1838746 ] } },
{ "type": "Feature", "properties": { "submission": 201, "NAME": "Ospedale SS. Trinità di Cagliari SPDC 1", "Latitude": 39.235960, "Longitude": 9.108430, "town": "Cagliari", "provincere": "Cagliari Sardegna", "latnew": 39.235960, "lngnew": 9.108430 }, "geometry": { "type": "Point", "coordinates": [ 9.10843, 39.23596 ] } },
{ "type": "Feature", "properties": { "submission": 202, "NAME": "Ospedale SS. Trinità di Cagliari SPDC 2", "Latitude": 39.235960, "Longitude": 9.108430, "town": "Cagliari", "provincere": "Cagliari Sardegna", "latnew": 39.235960, "lngnew": 9.108430 }, "geometry": { "type": "Point", "coordinates": [ 9.10843, 39.23596 ] } },
{ "type": "Feature", "properties": { "submission": 203, "NAME": "Ospedale Cardinal Massaia di Asti SPDC", "Latitude": 44.912026, "Longitude": 8.197224, "town": "Asti", "provincere": "Asti Piemonte", "latnew": 44.912026, "lngnew": 8.197224 }, "geometry": { "type": "Point", "coordinates": [ 8.197224399999982, 44.9120262 ] } },
{ "type": "Feature", "properties": { "submission": 204, "NAME": "Ospedale degli Infermi di Biella SPDC", "Latitude": 45.566508, "Longitude": 8.059632, "town": "Biella", "provincere": "Biella Piemonte", "latnew": 45.566508, "lngnew": 8.059632 }, "geometry": { "type": "Point", "coordinates": [ 8.059632, 45.5665078 ] } },
{ "type": "Feature", "properties": { "submission": 205, "NAME": "Ospedale San Lazzaro di Alba SPDC", "Latitude": 44.699226, "Longitude": 8.030957, "town": "Alba", "provincere": "Alba Piemonte", "latnew": 44.699226, "lngnew": 8.030957 }, "geometry": { "type": "Point", "coordinates": [ 8.030957400000034, 44.6992261 ] } },
{ "type": "Feature", "properties": { "submission": 206, "NAME": "Ospedale Santa Croce Mondovì SPDC", "Latitude": 44.393376, "Longitude": 7.799688, "town": "Mondovì", "provincere": "Cuneo Piemonte", "latnew": 44.390889, "lngnew": 7.801865 }, "geometry": { "type": "Point", "coordinates": [ 7.801864690499653, 44.39088904566151 ] } },
{ "type": "Feature", "properties": { "submission": 207, "NAME": "Centro di Salute Mentale di Barcola Trieste", "Latitude": 45.680510, "Longitude": 13.753825, "town": "Trieste", "provincere": "Trieste Friuli Venezia Giulia", "latnew": 45.680510, "lngnew": 13.753825 }, "geometry": { "type": "Point", "coordinates": [ 13.753825499999948, 45.680509699999988 ] } },
{ "type": "Feature", "properties": { "submission": 208, "NAME": "Centro di Salute Mentale della Maddalena Trieste", "Latitude": 45.637461, "Longitude": 13.787352, "town": "Trieste", "provincere": "Trieste Friuli Venezia Giulia", "latnew": 45.637461, "lngnew": 13.787352 }, "geometry": { "type": "Point", "coordinates": [ 13.787352400000032, 45.637461 ] } },
{ "type": "Feature", "properties": { "submission": 209, "NAME": "Ospedale SS. Annunziata di Savigliano SPDC", "Latitude": 44.642344, "Longitude": 7.660713, "town": "Savigliano", "provincere": "Cuneo Piemonte", "latnew": 44.643724, "lngnew": 7.660345 }, "geometry": { "type": "Point", "coordinates": [ 7.660344731259915, 44.643724252458767 ] } },
{ "type": "Feature", "properties": { "submission": 210, "NAME": "Centro di Salute Mentale di Domio Trieste", "Latitude": 45.616121, "Longitude": 13.822644, "town": "Trieste", "provincere": "Trieste Friuli Venezia Giulia", "latnew": 45.616121, "lngnew": 13.822644 }, "geometry": { "type": "Point", "coordinates": [ 13.822643800000037, 45.6161215 ] } },
{ "type": "Feature", "properties": { "submission": 211, "NAME": "Centro di Salute Mentale di via Gambini Trieste", "Latitude": 45.645421, "Longitude": 13.783162, "town": "Trieste", "provincere": "Trieste Friuli Venezia Giulia", "latnew": 45.645421, "lngnew": 13.783162 }, "geometry": { "type": "Point", "coordinates": [ 13.783161699999937, 45.6454207 ] } },
{ "type": "Feature", "properties": { "submission": 212, "NAME": "Ospedale S. Croce e Carle di Cuneo SPDC", "Latitude": 44.393111, "Longitude": 7.522508, "town": "Cuneo", "provincere": "Cuneo Piemonte", "latnew": 44.390139, "lngnew": 7.521771 }, "geometry": { "type": "Point", "coordinates": [ 7.521770841011944, 44.390138669579358 ] } },
{ "type": "Feature", "properties": { "submission": 213, "NAME": "Ospedale SS.Trinità di Borgomanero SPDC", "Latitude": 45.704541, "Longitude": 8.458436, "town": "Borgomanero", "provincere": "Novara Piemonte", "latnew": 45.704541, "lngnew": 8.458436 }, "geometry": { "type": "Point", "coordinates": [ 8.458436, 45.704541 ] } },
{ "type": "Feature", "properties": { "submission": 214, "NAME": "Centro Salute Mentale Alto Isontino di Gorizia", "Latitude": 45.934128, "Longitude": 13.633362, "town": "Gorizia", "provincere": "Gorizia Friuli VeneziaGiulia", "latnew": 45.934128, "lngnew": 13.633362 }, "geometry": { "type": "Point", "coordinates": [ 13.63336240000001, 45.9341281 ] } },
{ "type": "Feature", "properties": { "submission": 215, "NAME": "Centro Salute Mentale Basso Isontino Monfalcone", "Latitude": 45.805028, "Longitude": 13.548543, "town": "Monfalcone", "provincere": "Gorizia Friuli VeneziaGiulia", "latnew": 45.805028, "lngnew": 13.548543 }, "geometry": { "type": "Point", "coordinates": [ 13.548543, 45.805028 ] } },
{ "type": "Feature", "properties": { "submission": 216, "NAME": "Ospedale Maggiore della Carità di Novara SPDC", "Latitude": 45.443970, "Longitude": 8.622469, "town": "Novara", "provincere": "Novara Piemonte", "latnew": 45.443970, "lngnew": 8.622469 }, "geometry": { "type": "Point", "coordinates": [ 8.622469499999966, 45.4439704 ] } },
{ "type": "Feature", "properties": { "submission": 217, "NAME": "Ospedale San Giovanni Bosco di Torino SPDC", "Latitude": 45.096621, "Longitude": 7.700795, "town": "Torino", "provincere": "Torino Piemonte", "latnew": 45.096621, "lngnew": 7.700795 }, "geometry": { "type": "Point", "coordinates": [ 7.7007947, 45.0966212 ] } },
{ "type": "Feature", "properties": { "submission": 218, "NAME": "Centro Salute Mentale di Palmanova", "Latitude": 45.908056, "Longitude": 13.311642, "town": "Palmanova", "provincere": "Udine Friuli Venezia Giulia", "latnew": 45.908056, "lngnew": 13.311642 }, "geometry": { "type": "Point", "coordinates": [ 13.311642099999972, 45.9080556 ] } },
{ "type": "Feature", "properties": { "submission": 219, "NAME": "Centro Salute Mentale Latisana", "Latitude": 45.768950, "Longitude": 13.001330, "town": "Latisana", "provincere": "Udine Friuli Venezia Giulia", "latnew": 45.768950, "lngnew": 13.001330 }, "geometry": { "type": "Point", "coordinates": [ 13.00133, 45.76895 ] } },
{ "type": "Feature", "properties": { "submission": 220, "NAME": "Ospedale Amedeo di Savoia di Torino SPDC", "Latitude": 45.088903, "Longitude": 7.659655, "town": "Torino", "provincere": "Torino Piemonte", "latnew": 45.088903, "lngnew": 7.659655 }, "geometry": { "type": "Point", "coordinates": [ 7.65965540000002, 45.0889028 ] } },
{ "type": "Feature", "properties": { "submission": 221, "NAME": "Ospedale Martini di Torino SPDC", "Latitude": 45.067231, "Longitude": 7.628381, "town": "Torino", "provincere": "Torino Piemonte", "latnew": 45.067231, "lngnew": 7.628381 }, "geometry": { "type": "Point", "coordinates": [ 7.6283813, 45.0672315 ] } },
{ "type": "Feature", "properties": { "submission": 222, "NAME": "Ospedale Mauriziano Umberto I di Torino SPDC", "Latitude": 45.050392, "Longitude": 7.665423, "town": "Torino", "provincere": "Torino Piemonte", "latnew": 45.050392, "lngnew": 7.665423 }, "geometry": { "type": "Point", "coordinates": [ 7.6654234, 45.0503916 ] } },
{ "type": "Feature", "properties": { "submission": 227, "NAME": "Ospedale di Ceglie Messapica SPDC", "Latitude": 40.644060, "Longitude": 17.519030, "town": "CEGLIE MESSAPICA", "provincere": "Brindisi Puglia", "latnew": 40.644053, "lngnew": 17.517899 }, "geometry": { "type": "Point", "coordinates": [ 17.5178985466694, 40.644053496109862 ] } },
{ "type": "Feature", "properties": { "submission": 224, "NAME": "Policlinico FRANCESCO LASTARIA di LUCERA SPDC\n", "Latitude": 41.513186, "Longitude": 15.331379, "town": "Lucera", "provincere": "Foggia Puglia", "latnew": 41.513186, "lngnew": 15.331379 }, "geometry": { "type": "Point", "coordinates": [ 15.331379200000015, 41.5131863 ] } },
{ "type": "Feature", "properties": { "submission": 225, "NAME": "Ospedale TERESA MASSELLI di SAN SEVERO SPDC\n", "Latitude": 41.690126, "Longitude": 15.382247, "town": "San Severo", "provincere": "Foggia Puglia", "latnew": 41.689605, "lngnew": 15.383206 }, "geometry": { "type": "Point", "coordinates": [ 15.383205651927229, 41.689605457576796 ] } },
{ "type": "Feature", "properties": { "submission": 226, "NAME": "Presidio Ospedaliero di MANFREDONIA e MONTE S.ANGELO SPDC", "Latitude": 41.632803, "Longitude": 15.919627, "town": "Manfredonia", "provincere": "Foggia Puglia", "latnew": 41.632803, "lngnew": 15.919627 }, "geometry": { "type": "Point", "coordinates": [ 15.919627200000036, 41.632803 ] } },
{ "type": "Feature", "properties": { "submission": 228, "NAME": "OSPEDALE N. MELLI SPDC", "Latitude": 40.480307, "Longitude": 18.005250, "town": "SAN PIETRO VERNOTICO", "provincere": "Brindisi Puglia", "latnew": 40.479607, "lngnew": 18.005572 }, "geometry": { "type": "Point", "coordinates": [ 18.005571672647587, 40.479607476956822 ] } },
{ "type": "Feature", "properties": { "submission": 229, "NAME": "Ospedale SS. Annunziata di Taranto SPDC", "Latitude": 40.465206, "Longitude": 17.246146, "town": "Taranto", "provincere": "Taranto Puglia", "latnew": 40.464652, "lngnew": 17.248346 }, "geometry": { "type": "Point", "coordinates": [ 17.248346046424942, 40.46465212866061 ] } },
{ "type": "Feature", "properties": { "submission": 230, "NAME": "Ospedale S. Caterina Novella di Galatina SPDC", "Latitude": 40.174552, "Longitude": 18.162197, "town": "Lecce", "provincere": "Lecce Puglia", "latnew": 40.175970, "lngnew": 18.157911 }, "geometry": { "type": "Point", "coordinates": [ 18.157911397381344, 40.175970143591016 ] } },
{ "type": "Feature", "properties": { "submission": 231, "NAME": "Ospedale di SCORRANO SPDC\n", "Latitude": 40.095152, "Longitude": 18.300339, "town": "Scorrano", "provincere": "Lecce Puglia", "latnew": 40.094109, "lngnew": 18.301918 }, "geometry": { "type": "Point", "coordinates": [ 18.301918499176118, 40.094108543701289 ] } },
{ "type": "Feature", "properties": { "submission": 232, "NAME": "Ospedale Ferrari di Casarano SPDC", "Latitude": 40.016680, "Longitude": 18.162168, "town": "Casarano", "provincere": "Lecce Puglia", "latnew": 40.018006, "lngnew": 18.156313 }, "geometry": { "type": "Point", "coordinates": [ 18.156313286176168, 40.018005543239312 ] } },
{ "type": "Feature", "properties": { "submission": 233, "NAME": "Ospedale Vito Fazzi di Lecce SPDC", "Latitude": 40.331838, "Longitude": 18.158294, "town": "Lecce", "provincere": "Lecce Puglia", "latnew": 40.331838, "lngnew": 18.158294 }, "geometry": { "type": "Point", "coordinates": [ 18.1582942, 40.3318384 ] } },
{ "type": "Feature", "properties": { "submission": 234, "NAME": "Ospedale Monsignor Raffaele Dimiccoli di Barletta SPDC", "Latitude": 41.315552, "Longitude": 16.258543, "town": "Barletta", "provincere": "Andria-trani-Barletta Puglia", "latnew": 41.313724, "lngnew": 16.253623 }, "geometry": { "type": "Point", "coordinates": [ 16.253623192335358, 41.313723779245024 ] } },
{ "type": "Feature", "properties": { "submission": 235, "NAME": "Ospedale Civile - Vittorio Emanuele di Bisceglie II SPDC", "Latitude": 41.243299, "Longitude": 16.493240, "town": "Bisceglie", "provincere": "Andria-Trani-Barletta Puglia", "latnew": 41.243069, "lngnew": 16.488579 }, "geometry": { "type": "Point", "coordinates": [ 16.488578862625857, 41.243068531274893 ] } },
{ "type": "Feature", "properties": { "submission": 236, "NAME": "OSPEDALE DELLA MURGIA FABIO PERINEI di Altamura SPDC", "Latitude": 40.833063, "Longitude": 16.552662, "town": "Altamura", "provincere": "Bari Puglia", "latnew": 40.833063, "lngnew": 16.552662 }, "geometry": { "type": "Point", "coordinates": [ 16.552662400000031, 40.8330626 ] } },
{ "type": "Feature", "properties": { "submission": 237, "NAME": "Ospedale S. Giacomo di Monopoli SPDC", "Latitude": 40.948392, "Longitude": 17.298519, "town": "Monopoli", "provincere": "Bari Puglia", "latnew": 40.949029, "lngnew": 17.297675 }, "geometry": { "type": "Point", "coordinates": [ 17.297675438303958, 40.949029212853731 ] } },
{ "type": "Feature", "properties": { "submission": 238, "NAME": "Ospedale Di Venere di Bari SPDC", "Latitude": 41.076460, "Longitude": 16.864741, "town": "Bari", "provincere": "Bari Puglia", "latnew": 41.075847, "lngnew": 16.862794 }, "geometry": { "type": "Point", "coordinates": [ 16.862793632083772, 41.075847033855723 ] } },
{ "type": "Feature", "properties": { "submission": 239, "NAME": "Policlinico di Bari SPDC", "Latitude": 41.112062, "Longitude": 16.861850, "town": "Bari", "provincere": "Bari Puglia", "latnew": 41.112062, "lngnew": 16.861850 }, "geometry": { "type": "Point", "coordinates": [ 16.861849900000038, 41.1120624 ] } },
{ "type": "Feature", "properties": { "submission": 240, "NAME": "OSPEDALE F. SPAZIANI FROSINONE SPDC", "Latitude": 41.638296, "Longitude": 13.318266, "town": "Frosinone", "provincere": "Frosinone Lazio", "latnew": 41.638113, "lngnew": 13.323786 }, "geometry": { "type": "Point", "coordinates": [ 13.323786031100861, 41.638112564384635 ] } },
{ "type": "Feature", "properties": { "submission": 241, "NAME": "OSPEDALE CIVILE S.S.TRINITA`di SORA SPDC", "Latitude": 41.728076, "Longitude": 13.626286, "town": "Sora", "provincere": "Frosinone Lazio", "latnew": 41.729151, "lngnew": 13.632047 }, "geometry": { "type": "Point", "coordinates": [ 13.632046526046354, 41.72915110376087 ] } },
{ "type": "Feature", "properties": { "submission": 242, "NAME": "OSPEDALE S. SCOLASTICA CASSINO SPDC", "Latitude": 41.503077, "Longitude": 13.843935, "town": "Cassino", "provincere": "Frosinone Lazio", "latnew": 41.505695, "lngnew": 13.843291 }, "geometry": { "type": "Point", "coordinates": [ 13.843291354704892, 41.505694948835703 ] } },
{ "type": "Feature", "properties": { "submission": 243, "NAME": "Ospedale S. Maria Goretti di Latina SPDC", "Latitude": 41.462013, "Longitude": 12.905800, "town": "Latina", "provincere": "Latina Lazio", "latnew": 41.461191, "lngnew": 12.909314 }, "geometry": { "type": "Point", "coordinates": [ 12.909314062617549, 41.461190583676718 ] } },
{ "type": "Feature", "properties": { "submission": 244, "NAME": "Ospedale Dono Svizzero di Formia SPDC", "Latitude": 41.261578, "Longitude": 13.617910, "town": "Formia", "provincere": "Latina Lazio", "latnew": 41.261578, "lngnew": 13.617910 }, "geometry": { "type": "Point", "coordinates": [ 13.6179098, 41.2615785 ] } },
{ "type": "Feature", "properties": { "submission": 245, "NAME": "Ospedale San Camillo de Lellis Rieti SPDC", "Latitude": 42.265542, "Longitude": 13.119544, "town": "Rieti", "provincere": "Rieti Lazio", "latnew": 42.422709, "lngnew": 12.907790 }, "geometry": { "type": "Point", "coordinates": [ 12.90779049486836, 42.422709457477353 ] } },
{ "type": "Feature", "properties": { "submission": 246, "NAME": "Ospedale Belcolle di Viterbo SPDC", "Latitude": 42.405926, "Longitude": 12.116275, "town": "Viterbo", "provincere": "Viterbo Lazio", "latnew": 42.394332, "lngnew": 12.123451 }, "geometry": { "type": "Point", "coordinates": [ 12.12345059043122, 42.394332075869194 ] } },
{ "type": "Feature", "properties": { "submission": 247, "NAME": "CASCINA GERMOGLIO fondazione Emilia Bosis", "Latitude": 45.611642, "Longitude": 9.626015, "town": "Verdello", "provincere": "Bergamo Lombardia", "latnew": 45.611642, "lngnew": 9.626015 }, "geometry": { "type": "Point", "coordinates": [ 9.6260155, 45.611642499999988 ] } },
{ "type": "Feature", "properties": { "submission": 248, "NAME": "Policlinico Tor Vergata di Roma SPDC", "Latitude": 41.858460, "Longitude": 12.629900, "town": "Roma", "provincere": "Roma Lazio", "latnew": 41.858460, "lngnew": 12.629900 }, "geometry": { "type": "Point", "coordinates": [ 12.6299, 41.85846 ] } },
{ "type": "Feature", "properties": { "submission": 249, "NAME": "Azienda ospedaliera SantAndrea di Roma SPDC", "Latitude": 41.981442, "Longitude": 12.470033, "town": "Roma", "provincere": "Roma Lazio", "latnew": 41.981442, "lngnew": 12.470033 }, "geometry": { "type": "Point", "coordinates": [ 12.470033, 41.9814415 ] } },
{ "type": "Feature", "properties": { "submission": 250, "NAME": "Policlinico Umberto I di Roma SPDC", "Latitude": 41.905315, "Longitude": 12.510775, "town": "Roma", "provincere": "Roma Lazio", "latnew": 41.905315, "lngnew": 12.510775 }, "geometry": { "type": "Point", "coordinates": [ 12.510775, 41.9053145 ] } },
{ "type": "Feature", "properties": { "submission": 251, "NAME": "Ospedale San Filippo Neri di Roma SPCD", "Latitude": 41.947023, "Longitude": 12.415428, "town": "Roma", "provincere": "Roma Lazio", "latnew": 41.947023, "lngnew": 12.415428 }, "geometry": { "type": "Point", "coordinates": [ 12.415428499999962, 41.9470232 ] } },
{ "type": "Feature", "properties": { "submission": 252, "NAME": "Ospedale S. Giovanni Addolorata di ROMA SPDC", "Latitude": 41.885892, "Longitude": 12.503186, "town": "Roma", "provincere": "Roma Lazio", "latnew": 41.885892, "lngnew": 12.503186 }, "geometry": { "type": "Point", "coordinates": [ 12.5031865, 41.8858916 ] } },
{ "type": "Feature", "properties": { "submission": 253, "NAME": "Ospedale SAN CAMILLO-FORLANINI di Roma SPDC", "Latitude": 41.866853, "Longitude": 12.449061, "town": "Roma", "provincere": "Roma Lazio", "latnew": 41.866853, "lngnew": 12.449061 }, "geometry": { "type": "Point", "coordinates": [ 12.449060599999939, 41.8668531 ] } },
{ "type": "Feature", "properties": { "submission": 254, "NAME": "OSPEDALE SANDRO PERTINI di Roma SPDC", "Latitude": 41.917296, "Longitude": 12.539376, "town": "Roma", "provincere": "Roma Lazio", "latnew": 41.920308, "lngnew": 12.540633 }, "geometry": { "type": "Point", "coordinates": [ 12.540633426528535, 41.920308029019033 ] } },
{ "type": "Feature", "properties": { "submission": 255, "NAME": "OSPEDALE FATEBENEFRATELLI di Roma SPDC", "Latitude": 41.890720, "Longitude": 12.477810, "town": "Roma", "provincere": "Roma Lazio", "latnew": 41.890720, "lngnew": 12.477810 }, "geometry": { "type": "Point", "coordinates": [ 12.47781, 41.89072 ] } },
{ "type": "Feature", "properties": { "submission": 256, "NAME": "OSPEDALE S. EUGENIO di Roma SPDC", "Latitude": 41.822360, "Longitude": 12.471680, "town": "Roma", "provincere": "Roma Lazio", "latnew": 41.822360, "lngnew": 12.471680 }, "geometry": { "type": "Point", "coordinates": [ 12.47168, 41.82236 ] } },
{ "type": "Feature", "properties": { "submission": 257, "NAME": "OSPEDALE G. B. GRASSI SPDC", "Latitude": 41.729420, "Longitude": 12.297750, "town": "Roma", "provincere": "Roma Lazio", "latnew": 41.729420, "lngnew": 12.297750 }, "geometry": { "type": "Point", "coordinates": [ 12.2977502, 41.72942 ] } },
{ "type": "Feature", "properties": { "submission": 258, "NAME": "OSPEDALE S. GIOVANNI EVANGELISTA di TIVOLI SPDC", "Latitude": 41.960435, "Longitude": 12.801767, "town": "Tivoli", "provincere": "Roma Lazio", "latnew": 41.960435, "lngnew": 12.801767 }, "geometry": { "type": "Point", "coordinates": [ 12.801767400000017, 41.960435 ] } },
{ "type": "Feature", "properties": { "submission": 259, "NAME": "OSPEDALE A. ANGELUCCI di Roma SPDC", "Latitude": 41.931374, "Longitude": 13.085295, "town": "Subiaco", "provincere": "Roma Lazio", "latnew": 41.931374, "lngnew": 13.085295 }, "geometry": { "type": "Point", "coordinates": [ 13.085294699999963, 41.931374 ] } },
{ "type": "Feature", "properties": { "submission": 261, "NAME": "OSPEDALE S.SEBASTIANO Martire di FRASCATI SPDC     \n", "Latitude": 41.816151, "Longitude": 12.651686, "town": "Frascati", "provincere": "Roma Lazio", "latnew": 41.809158, "lngnew": 12.676094 }, "geometry": { "type": "Point", "coordinates": [ 12.676094493090689, 41.809157935912644 ] } },
{ "type": "Feature", "properties": { "submission": 262, "NAME": "OSPEDALE SAN PAOLO di Roma SPDC                    \n", "Latitude": 42.098821, "Longitude": 11.809399, "town": "Roma", "provincere": "Roma Lazio", "latnew": 42.098821, "lngnew": 11.809399 }, "geometry": { "type": "Point", "coordinates": [ 11.809398800000054, 42.0988206 ] } },
{ "type": "Feature", "properties": { "submission": 263, "NAME": "Ospedale SAN GIUSEPPE di ALBANO SPDC             \n", "Latitude": 41.729802, "Longitude": 12.644583, "town": "Albano Laziale", "provincere": "Roma Lazio", "latnew": 41.729802, "lngnew": 12.644583 }, "geometry": { "type": "Point", "coordinates": [ 12.644583199999943, 41.7298023 ] } },
{ "type": "Feature", "properties": { "submission": 264, "NAME": "OSPEDALE GENERALE SANTO SPIRITO di Roma SPDC", "Latitude": 41.900999, "Longitude": 12.462959, "town": "Roma", "provincere": "Roma Lazio", "latnew": 41.900999, "lngnew": 12.462959 }, "geometry": { "type": "Point", "coordinates": [ 12.462959100000035, 41.9009986 ] } },
{ "type": "Feature", "properties": { "submission": 265, "NAME": "Ospedale SAN ROCCO di Sessa Aurunca SPDC", "Latitude": 41.289775, "Longitude": 13.983659, "town": "Sessa Aurunca", "provincere": "Casera Campania", "latnew": 41.246995, "lngnew": 13.935110 }, "geometry": { "type": "Point", "coordinates": [ 13.935109666180827, 41.246995281136122 ] } },
{ "type": "Feature", "properties": { "submission": 266, "NAME": "OSPEDALE S.G.MOSCATI AVERSA SPDC", "Latitude": 40.954364, "Longitude": 14.211947, "town": "Aversa", "provincere": "Casera Campania", "latnew": 40.957756, "lngnew": 14.209153 }, "geometry": { "type": "Point", "coordinates": [ 14.209152953138254, 40.957756256890946 ] } },
{ "type": "Feature", "properties": { "submission": 267, "NAME": "OSPEDALE LANDOLFI SOLOFRA SPDC", "Latitude": 40.832547, "Longitude": 14.845631, "town": "Solofra", "provincere": "Avellino Campania", "latnew": 40.836646, "lngnew": 14.838208 }, "geometry": { "type": "Point", "coordinates": [ 14.838207880422484, 40.836645701892103 ] } },
{ "type": "Feature", "properties": { "submission": 268, "NAME": "Ospedale G. Rummo di Benevento SPDC", "Latitude": 41.060600, "Longitude": 14.812130, "town": "Benevento", "provincere": "Benevento Campania", "latnew": 41.119595, "lngnew": 14.796358 }, "geometry": { "type": "Point", "coordinates": [ 14.796358226301743, 41.119594707253519 ] } },
{ "type": "Feature", "properties": { "submission": 269, "NAME": "Ospedale di Caserta SPDC", "Latitude": 41.086163, "Longitude": 14.331885, "town": "Caserta", "provincere": "Casera Campania", "latnew": 41.086163, "lngnew": 14.331885 }, "geometry": { "type": "Point", "coordinates": [ 14.331885, 41.0861629 ] } },
{ "type": "Feature", "properties": { "submission": 270, "NAME": "OSPEDALE CIVILE S. GIOVANNI DI DIO di Frattamaggiore SPDC", "Latitude": 40.947499, "Longitude": 14.271398, "town": "Frattamaggiore", "provincere": "Napoli Campania", "latnew": 40.947991, "lngnew": 14.271441 }, "geometry": { "type": "Point", "coordinates": [ 14.271440558080668, 40.947990839751917 ] } },
{ "type": "Feature", "properties": { "submission": 271, "NAME": "OSPEDALE S.M.DELLE GRAZIE di Pozzuoli SPDC", "Latitude": 40.847742, "Longitude": 14.074744, "town": "Pozzuoli", "provincere": "Napoli Campania", "latnew": 40.847742, "lngnew": 14.074744 }, "geometry": { "type": "Point", "coordinates": [ 14.07474430000002, 40.8477419 ] } },
{ "type": "Feature", "properties": { "submission": 272, "NAME": "OSPEDALI RIUNITI GOLFO VESUVIANO SPDC", "Latitude": 40.801471, "Longitude": 14.383202, "town": "Torre del greco", "provincere": "Napoli Campania", "latnew": 40.801471, "lngnew": 14.383202 }, "geometry": { "type": "Point", "coordinates": [ 14.383202399999959, 40.8014711 ] } },
{ "type": "Feature", "properties": { "submission": 273, "NAME": "Ospedale San Giovanni Bosco di Napoli SPDC", "Latitude": 40.871148, "Longitude": 14.272356, "town": "Napoli", "provincere": "Napoli Campania", "latnew": 40.873365, "lngnew": 14.277791 }, "geometry": { "type": "Point", "coordinates": [ 14.277790804633021, 40.873364907895279 ] } },
{ "type": "Feature", "properties": { "submission": 274, "NAME": "Ospedale San Paolo di Napoli SPDC", "Latitude": 40.827125, "Longitude": 14.182961, "town": "Napoli", "provincere": "Napoli Campania", "latnew": 40.827125, "lngnew": 14.182961 }, "geometry": { "type": "Point", "coordinates": [ 14.182961, 40.8271254 ] } },
{ "type": "Feature", "properties": { "submission": 275, "NAME": "Ospedali dei Colli Napoli SPDC    \n", "Latitude": 40.868195, "Longitude": 14.210680, "town": "Napoli", "provincere": "Napoli Campania", "latnew": 40.868195, "lngnew": 14.210680 }, "geometry": { "type": "Point", "coordinates": [ 14.2106804, 40.8681953 ] } },
{ "type": "Feature", "properties": { "submission": 276, "NAME": "Ospedale Primo Policlinico di Napoli SPDC", "Latitude": 40.849982, "Longitude": 14.253675, "town": "Napoli", "provincere": "Napoli Campania", "latnew": 40.849918, "lngnew": 14.253161 }, "geometry": { "type": "Point", "coordinates": [ 14.253160603031542, 40.849917562144434 ] } },
{ "type": "Feature", "properties": { "submission": 277, "NAME": "Azienda Ospedaliera Universitaria Federico II di Napoli SPDC", "Latitude": 40.862865, "Longitude": 14.220265, "town": "Napoli", "provincere": "Napoli Campania", "latnew": 40.862865, "lngnew": 14.220265 }, "geometry": { "type": "Point", "coordinates": [ 14.220265, 40.8628653 ] } },
{ "type": "Feature", "properties": { "submission": 278, "NAME": "Ospedale Umberto I di Nocera SPDC", "Latitude": 40.743378, "Longitude": 14.650756, "town": "Nocera Inferiore", "provincere": "Salerno Campania", "latnew": 40.745066, "lngnew": 14.651185 }, "geometry": { "type": "Point", "coordinates": [ 14.651184880807032, 40.745066171724481 ] } },
{ "type": "Feature", "properties": { "submission": 279, "NAME": "Ospedale S. Arsenio di Polla SPDC", "Latitude": 40.516829, "Longitude": 15.498745, "town": "Polla", "provincere": "Salerno Campania", "latnew": 40.516829, "lngnew": 15.498745 }, "geometry": { "type": "Point", "coordinates": [ 15.4987453, 40.5168286 ] } },
{ "type": "Feature", "properties": { "submission": 280, "NAME": "Ospedale San Giovanni di Dio Ruggi dAragona SPDC", "Latitude": 40.654501, "Longitude": 14.813137, "town": "Salerno", "provincere": "Salerno Campania", "latnew": 40.649117, "lngnew": 14.828428 }, "geometry": { "type": "Point", "coordinates": [ 14.828428263194494, 40.649116603494598 ] } },
{ "type": "Feature", "properties": { "submission": 281, "NAME": "Ospedale San Giovanni di Dio di Agrigento SPDC", "Latitude": 37.356550, "Longitude": 13.609133, "town": "Agrigento", "provincere": "Agrigento Sicilia", "latnew": 37.353361, "lngnew": 13.607968 }, "geometry": { "type": "Point", "coordinates": [ 13.607967660204928, 37.3533609768525 ] } },
{ "type": "Feature", "properties": { "submission": 282, "NAME": "Ospedale Barone Lombardo Di Canicattì SPDC", "Latitude": 37.358179, "Longitude": 13.850690, "town": "Canicattì", "provincere": "Agrigento Sicilia", "latnew": 37.352837, "lngnew": 13.833993 }, "geometry": { "type": "Point", "coordinates": [ 13.833992691758555, 37.352836750943929 ] } },
{ "type": "Feature", "properties": { "submission": 283, "NAME": "Ospedale San Giovanni Paolo II di Sciacca SPDC", "Latitude": 37.524664, "Longitude": 13.073380, "town": "Sciacca", "provincere": "Agrigento Sicilia", "latnew": 37.524664, "lngnew": 13.073380 }, "geometry": { "type": "Point", "coordinates": [ 13.0733801, 37.5246639 ] } },
{ "type": "Feature", "properties": { "submission": 284, "NAME": "Ospedale MADDALENA RAIMONDI di San Cataldo SPDC                      \n", "Latitude": 37.476470, "Longitude": 13.980711, "town": "San Cataldo", "provincere": "Caltanisetta Sicilia", "latnew": 37.476470, "lngnew": 13.980711 }, "geometry": { "type": "Point", "coordinates": [ 13.980711299999939, 37.4764703 ] } },
{ "type": "Feature", "properties": { "submission": 285, "NAME": "Policlinico Vittorio Emanuele di Gela SPDC", "Latitude": 37.073857, "Longitude": 14.230870, "town": "Gela", "provincere": "Caltanisetta Sicilia", "latnew": 37.073857, "lngnew": 14.230870 }, "geometry": { "type": "Point", "coordinates": [ 14.23087, 37.0738569 ] } },
{ "type": "Feature", "properties": { "submission": 286, "NAME": "Ospedale S.Giovanni Di Dio e S.Isidoro Giarre SPDC", "Latitude": 37.722389, "Longitude": 15.168237, "town": "Giarre", "provincere": "Catania Sicilia", "latnew": 37.722389, "lngnew": 15.168237 }, "geometry": { "type": "Point", "coordinates": [ 15.168237, 37.7223891 ] } },
{ "type": "Feature", "properties": { "submission": 287, "NAME": "Ospedale Castiglione Prestianni di Bronte SPDC", "Latitude": 37.789327, "Longitude": 14.835492, "town": "Bronte", "provincere": "Catania Sicilia", "latnew": 37.789327, "lngnew": 14.835492 }, "geometry": { "type": "Point", "coordinates": [ 14.835491700000034, 37.7893267 ] } },
{ "type": "Feature", "properties": { "submission": 288, "NAME": "Ospedale SS. Salvatore di Paternò SPDC", "Latitude": 37.571116, "Longitude": 14.898673, "town": "Paternò", "provincere": "Catania Sicilia", "latnew": 37.572149, "lngnew": 14.898545 }, "geometry": { "type": "Point", "coordinates": [ 14.898544925757866, 37.57214895641448 ] } },
{ "type": "Feature", "properties": { "submission": 289, "NAME": "Ospedale Gravina e S. Pietro Caltagirone SPDC", "Latitude": 37.224392, "Longitude": 14.517840, "town": "Caltagirone", "provincere": "Catania Sicilia", "latnew": 37.223102, "lngnew": 14.515894 }, "geometry": { "type": "Point", "coordinates": [ 14.51589424313611, 37.223101999435258 ] } },
{ "type": "Feature", "properties": { "submission": 290, "NAME": "Ospedale Cannizzarro Catania SPDC", "Latitude": 37.541006, "Longitude": 15.120394, "town": "Catania", "provincere": "Catania Sicilia", "latnew": 37.541006, "lngnew": 15.120394 }, "geometry": { "type": "Point", "coordinates": [ 15.120394499999975, 37.5410064 ] } },
{ "type": "Feature", "properties": { "submission": 291, "NAME": "Ospedale Arnas Garibaldi di Catania SPDC", "Latitude": 37.494470, "Longitude": 15.073037, "town": "Catania", "provincere": "Catania Sicilia", "latnew": 37.494470, "lngnew": 15.073037 }, "geometry": { "type": "Point", "coordinates": [ 15.073037099999965, 37.4944703 ] } },
{ "type": "Feature", "properties": { "submission": 292, "NAME": "Policlinico Vittorio Emanuele II di Catania SPDC", "Latitude": 37.529638, "Longitude": 15.068693, "town": "Catania", "provincere": "Catania Sicilia", "latnew": 37.529638, "lngnew": 15.068693 }, "geometry": { "type": "Point", "coordinates": [ 15.068693199999984, 37.529637699999988 ] } },
{ "type": "Feature", "properties": { "submission": 293, "NAME": "Ospedale Umberto I di Enna SPDC", "Latitude": 37.567033, "Longitude": 14.274712, "town": "Enna", "provincere": "Enna Sicilia", "latnew": 37.563870, "lngnew": 14.278475 }, "geometry": { "type": "Point", "coordinates": [ 14.278474739485603, 37.563869516575927 ] } },
{ "type": "Feature", "properties": { "submission": 294, "NAME": "Ospedale G. FOGLIANI di MILAZZO SPDC                   \n", "Latitude": 38.186753, "Longitude": 15.253826, "town": "Milazzo", "provincere": "Messina Sicilia", "latnew": 38.188694, "lngnew": 15.252446 }, "geometry": { "type": "Point", "coordinates": [ 15.252446369801378, 38.188693713613553 ] } },
{ "type": "Feature", "properties": { "submission": 295, "NAME": "Ospedale San Vincenzo di Taormina SPDC", "Latitude": 37.843818, "Longitude": 15.279406, "town": "Taormina", "provincere": "Messina Sicilia", "latnew": 37.843818, "lngnew": 15.279406 }, "geometry": { "type": "Point", "coordinates": [ 15.279406399999971, 37.8438175 ] } },
{ "type": "Feature", "properties": { "submission": 296, "NAME": "Ospedale BARONE-ROMEO di PATTI SPDC             \n", "Latitude": 38.141896, "Longitude": 14.967025, "town": "Patti", "provincere": "Messina Sicilia", "latnew": 38.141370, "lngnew": 14.969374 }, "geometry": { "type": "Point", "coordinates": [ 14.969373922822399, 38.141370366427367 ] } },
{ "type": "Feature", "properties": { "submission": 297, "NAME": "Ospedale S. AGATA di MILITELLO SPDC    \n       \n", "Latitude": 38.068800, "Longitude": 14.637561, "town": "Militello", "provincere": "Messina Sicilia", "latnew": 38.066087, "lngnew": 14.627361 }, "geometry": { "type": "Point", "coordinates": [ 14.627360976792872, 38.066087280240843 ] } },
{ "type": "Feature", "properties": { "submission": 298, "NAME": "Ospedali Riuniti Papardo Piemonte SPDC", "Latitude": 38.255510, "Longitude": 15.605262, "town": "Messina", "provincere": "Messina Sicilia", "latnew": 38.264071, "lngnew": 15.597033 }, "geometry": { "type": "Point", "coordinates": [ 15.597033448505238, 38.264070733640246 ] } },
{ "type": "Feature", "properties": { "submission": 299, "NAME": "Policlinico G. Martino di Messina SPDC", "Latitude": 38.164869, "Longitude": 15.538580, "town": "Messina", "provincere": "Messina Sicilia", "latnew": 38.164869, "lngnew": 15.538580 }, "geometry": { "type": "Point", "coordinates": [ 15.538579600000048, 38.1648694 ] } },
{ "type": "Feature", "properties": { "submission": 300, "NAME": "Ospedale dei Bianchi di Corleone SPDC", "Latitude": 37.817076, "Longitude": 13.298073, "town": "Corleone", "provincere": "Palermo Sicilia", "latnew": 37.817076, "lngnew": 13.298073 }, "geometry": { "type": "Point", "coordinates": [ 13.298073, 37.8170756 ] } },
{ "type": "Feature", "properties": { "submission": 301, "NAME": "Ospedale Civico Partinico SPDC", "Latitude": 38.037556, "Longitude": 13.115460, "town": "Partinico", "provincere": "Palermo Sicilia", "latnew": 38.037556, "lngnew": 13.115460 }, "geometry": { "type": "Point", "coordinates": [ 13.11546, 38.037556 ] } },
{ "type": "Feature", "properties": { "submission": 302, "NAME": "Ospedale San Cimino di Termini Imerese SPDC", "Latitude": 37.985290, "Longitude": 13.686348, "town": "Termini Imerese", "provincere": "Palermo Sicilia", "latnew": 37.985290, "lngnew": 13.686348 }, "geometry": { "type": "Point", "coordinates": [ 13.686347500000011, 37.9852905 ] } },
{ "type": "Feature", "properties": { "submission": 303, "NAME": "Cral Ospedale Ingrassia di Palermo SPDC", "Latitude": 38.094707, "Longitude": 13.310217, "town": "Palermo", "provincere": "Palermo Sicilia", "latnew": 38.094707, "lngnew": 13.310217 }, "geometry": { "type": "Point", "coordinates": [ 13.310217, 38.0947068 ] } },
{ "type": "Feature", "properties": { "submission": 304, "NAME": "Ospedale Villa Sofia di Palermo SPDC", "Latitude": 38.154683, "Longitude": 13.338326, "town": "Palermo", "provincere": "Palermo Sicilia", "latnew": 38.154683, "lngnew": 13.338326 }, "geometry": { "type": "Point", "coordinates": [ 13.338326100000018, 38.1546829 ] } },
{ "type": "Feature", "properties": { "submission": 305, "NAME": "Ospedale Cervello di Palermo SPDC", "Latitude": 38.152921, "Longitude": 13.315323, "town": "Palermo", "provincere": "Palermo Sicilia", "latnew": 38.155058, "lngnew": 13.312760 }, "geometry": { "type": "Point", "coordinates": [ 13.312760386774068, 38.155057781100304 ] } },
{ "type": "Feature", "properties": { "submission": 306, "NAME": "Ospedali Civico Di Cristina Benfratelli di Palermo SPDC", "Latitude": 38.104810, "Longitude": 13.356390, "town": "Palermo", "provincere": "Palermo Sicilia", "latnew": 38.104810, "lngnew": 13.356390 }, "geometry": { "type": "Point", "coordinates": [ 13.35639, 38.10481 ] } },
{ "type": "Feature", "properties": { "submission": 307, "NAME": "Policlinico Paolo Giaccone di Palermo SPDC", "Latitude": 38.104379, "Longitude": 13.362753, "town": "Palermo", "provincere": "Palermo Sicilia", "latnew": 38.104837, "lngnew": 13.360764 }, "geometry": { "type": "Point", "coordinates": [ 13.360764485055393, 38.104837251770526 ] } },
{ "type": "Feature", "properties": { "submission": 308, "NAME": "OSPEDALE CIVILE MARIA PATERNO AREZZO SPDC\n", "Latitude": 36.921669, "Longitude": 14.745182, "town": "Ragusa", "provincere": "Ragusa Sicilia", "latnew": 36.922327, "lngnew": 14.742748 }, "geometry": { "type": "Point", "coordinates": [ 14.742747861016186, 36.922327250975378 ] } },
{ "type": "Feature", "properties": { "submission": 309, "NAME": "OSPEDALE BUSACCA di SCICLI SPDC", "Latitude": 36.795775, "Longitude": 14.701002, "town": "Scicli", "provincere": "Ragusa Sicilia", "latnew": 36.794882, "lngnew": 14.699510 }, "geometry": { "type": "Point", "coordinates": [ 14.699510338791542, 36.794882482679917 ] } },
{ "type": "Feature", "properties": { "submission": 310, "NAME": "Ospedale Giuseppe di MARIA di AVOLA SPDC                          \n", "Latitude": 36.925877, "Longitude": 15.154221, "town": "Avola", "provincere": "Siracusa Sicilia", "latnew": 36.926878, "lngnew": 15.159330 }, "geometry": { "type": "Point", "coordinates": [ 15.159330083219656, 36.926877824096856 ] } },
{ "type": "Feature", "properties": { "submission": 311, "NAME": "Ospedale Umberto I di Siracusa SPDC", "Latitude": 37.073100, "Longitude": 15.282741, "town": "Siracusa", "provincere": "Siracusa Sicilia", "latnew": 37.073100, "lngnew": 15.282741 }, "geometry": { "type": "Point", "coordinates": [ 15.282741200000032, 37.0731003 ] } },
{ "type": "Feature", "properties": { "submission": 312, "NAME": "OSPEDALE E. MUSCATELLO di AUGUSTA SPDC", "Latitude": 37.241236, "Longitude": 15.225782, "town": "Augusta", "provincere": "Siracusa Sicilia", "latnew": 37.245740, "lngnew": 15.234542 }, "geometry": { "type": "Point", "coordinates": [ 15.234541791695481, 37.245739984012999 ] } },
{ "type": "Feature", "properties": { "submission": 313, "NAME": "Ospedale Molinette di Torino SPDC", "Latitude": 45.041402, "Longitude": 7.673969, "town": "Torino", "provincere": "Torino Piemonte", "latnew": 45.041402, "lngnew": 7.673969 }, "geometry": { "type": "Point", "coordinates": [ 7.6739695, 45.0414018 ] } },
{ "type": "Feature", "properties": { "submission": 314, "NAME": "Ospedale Edoardo Agnelli di Pinerolo SPDC", "Latitude": 44.883220, "Longitude": 7.319930, "town": "Pinerolo", "provincere": "Torino Piemonte", "latnew": 44.883220, "lngnew": 7.319930 }, "geometry": { "type": "Point", "coordinates": [ 7.31993, 44.88322 ] } },
{ "type": "Feature", "properties": { "submission": 320, "NAME": "Ospedale degli Infermi di Rivoli SPDC", "Latitude": 45.058615, "Longitude": 7.519230, "town": "Rivoli", "provincere": "Torino Piemonte", "latnew": 45.059657, "lngnew": 7.521955 }, "geometry": { "type": "Point", "coordinates": [ 7.521955473932625, 45.059656723674301 ] } },
{ "type": "Feature", "properties": { "submission": 315, "NAME": "OSPEDALE SAN VITO E SANTO SPIRITO di Alcamo SPDC", "Latitude": 37.982499, "Longitude": 12.960921, "town": "Alcamo", "provincere": "Trapani Sicilia", "latnew": 37.982499, "lngnew": 12.960921 }, "geometry": { "type": "Point", "coordinates": [ 12.960921, 37.982499 ] } },
{ "type": "Feature", "properties": { "submission": 316, "NAME": "Ospedale S. Antonio Abate di Erice SPDC", "Latitude": 38.024559, "Longitude": 12.549400, "town": "Erice", "provincere": "Trapani Sicilia", "latnew": 38.027908, "lngnew": 12.549846 }, "geometry": { "type": "Point", "coordinates": [ 12.549845824039259, 38.027908345650189 ] } },
{ "type": "Feature", "properties": { "submission": 317, "NAME": "Ospedale di CORIGLIANO Calabro SPDC\n", "Latitude": 39.589601, "Longitude": 16.521196, "town": "Corigliano", "provincere": "Cosenza Calabria", "latnew": 39.589601, "lngnew": 16.521196 }, "geometry": { "type": "Point", "coordinates": [ 16.521196, 39.5896014 ] } },
{ "type": "Feature", "properties": { "submission": 318, "NAME": "Ospedale G. Iannelli di Cetraro SPDC", "Latitude": 39.531206, "Longitude": 15.917515, "town": "Cetraro", "provincere": "Cosenza Calabria", "latnew": 39.531206, "lngnew": 15.917515 }, "geometry": { "type": "Point", "coordinates": [ 15.917515, 39.531206 ] } },
{ "type": "Feature", "properties": { "submission": 319, "NAME": "Ospedale Beato Angelico di Acri SPDC", "Latitude": 39.491017, "Longitude": 16.388317, "town": "Acri", "provincere": "Cosenza Calabria", "latnew": 39.491017, "lngnew": 16.388317 }, "geometry": { "type": "Point", "coordinates": [ 16.3883171, 39.491017 ] } },
{ "type": "Feature", "properties": { "submission": 321, "NAME": "Ospedale Annunziata di Cosenza SPDC", "Latitude": 39.292891, "Longitude": 16.248768, "town": "Cosenza", "provincere": "Cosenza Calabria", "latnew": 39.292891, "lngnew": 16.248768 }, "geometry": { "type": "Point", "coordinates": [ 16.248768400000017, 39.292891 ] } },
{ "type": "Feature", "properties": { "submission": 322, "NAME": "Ospedale San Luigi Gonzaga di Orbassano SPDC", "Latitude": 45.029225, "Longitude": 7.557472, "town": "Orbassano", "provincere": "Torino Piemonte", "latnew": 45.029225, "lngnew": 7.557472 }, "geometry": { "type": "Point", "coordinates": [ 7.5574722, 45.0292249 ] } },
{ "type": "Feature", "properties": { "submission": 323, "NAME": "OSPEDALE GIOVANNI PAOLO II DI LAMEZIA TERME SPDC", "Latitude": 38.959803, "Longitude": 16.297828, "town": "Lamezia Terme", "provincere": "Cosenza Calabria", "latnew": 38.960232, "lngnew": 16.302885 }, "geometry": { "type": "Point", "coordinates": [ 16.302884953522799, 38.960232202957293 ] } },
{ "type": "Feature", "properties": { "submission": 324, "NAME": "Ospedale Pugliese Ciaccio di Catanzaro SPDC", "Latitude": 38.924621, "Longitude": 16.581557, "town": "Catanzaro", "provincere": "Catanzaro Calabria", "latnew": 38.919927, "lngnew": 16.582928 }, "geometry": { "type": "Point", "coordinates": [ 16.582928358582471, 38.919926529959838 ] } },
{ "type": "Feature", "properties": { "submission": 325, "NAME": "OSPEDALE CIVILE SAN GIOVANNI DI DIO di Crotone SPDC", "Latitude": 39.079290, "Longitude": 17.119529, "town": "Crotone", "provincere": "Crotone Calabria", "latnew": 39.078984, "lngnew": 17.118680 }, "geometry": { "type": "Point", "coordinates": [ 17.118680110002149, 39.078983518773008 ] } },
{ "type": "Feature", "properties": { "submission": 326, "NAME": "Ospedale Civico di Chivasso SPDC", "Latitude": 45.191465, "Longitude": 7.895743, "town": "Chivasso", "provincere": "Torino Piemonte", "latnew": 45.191465, "lngnew": 7.895743 }, "geometry": { "type": "Point", "coordinates": [ 7.895743300000049, 45.1914653 ] } },
{ "type": "Feature", "properties": { "submission": 327, "NAME": "Ospedale di Ciriè SPDC", "Latitude": 45.236096, "Longitude": 7.598806, "town": "Ciriè", "provincere": "Torino Piemonte", "latnew": 45.236096, "lngnew": 7.598806 }, "geometry": { "type": "Point", "coordinates": [ 7.598806400000058, 45.2360961 ] } },
{ "type": "Feature", "properties": { "submission": 328, "NAME": "OSPEDALE CIVILE LOCRI  SPDC", "Latitude": 38.235745, "Longitude": 16.246308, "town": "Locri", "provincere": "Reggio Calabria Calabria", "latnew": 38.235745, "lngnew": 16.246308 }, "geometry": { "type": "Point", "coordinates": [ 16.246307800000068, 38.2357449 ] } },
{ "type": "Feature", "properties": { "submission": 329, "NAME": "Ospedale di Ivrea SPDC", "Latitude": 45.466847, "Longitude": 7.872393, "town": "Ivrea", "provincere": "Torino Piemonte", "latnew": 45.466847, "lngnew": 7.872393 }, "geometry": { "type": "Point", "coordinates": [ 7.872393, 45.466847 ] } },
{ "type": "Feature", "properties": { "submission": 330, "NAME": "Ospedale S. Maria degli Ungheresi di Polistena SPDC", "Latitude": 38.409001, "Longitude": 16.076767, "town": "Polistena", "provincere": "Reggio Calabria Calabria", "latnew": 38.409001, "lngnew": 16.076767 }, "geometry": { "type": "Point", "coordinates": [ 16.076766599999928, 38.4090009 ] } },
{ "type": "Feature", "properties": { "submission": 331, "NAME": "Ospedale Santa Croce di Moncalieri SPDC", "Latitude": 45.001250, "Longitude": 7.689510, "town": "Moncalieri", "provincere": "Torino Piemonte", "latnew": 45.001250, "lngnew": 7.689510 }, "geometry": { "type": "Point", "coordinates": [ 7.68951, 45.00125 ] } },
{ "type": "Feature", "properties": { "submission": 332, "NAME": "Ospedale Tiberio Evoli di Melito Porto Salvo SPDC", "Latitude": 37.919388, "Longitude": 15.781359, "town": "Melito Porto Salvo", "provincere": "Reggio Calabria Calabria", "latnew": 37.919388, "lngnew": 15.781359 }, "geometry": { "type": "Point", "coordinates": [ 15.781358700000055, 37.9193885 ] } },
{ "type": "Feature", "properties": { "submission": 333, "NAME": "Ospedale Bianchi Melacrino Morelli di Reggio Calabria SPDC", "Latitude": 38.103906, "Longitude": 15.662504, "town": "Reggio Calabria", "provincere": "Reggio Calabria Calabria", "latnew": 38.113078, "lngnew": 15.659418 }, "geometry": { "type": "Point", "coordinates": [ 15.659417818189496, 38.113078349339901 ] } },
{ "type": "Feature", "properties": { "submission": 334, "NAME": "Ospedale G. Jazzolino di Vibo Valentia SPDC", "Latitude": 38.678537, "Longitude": 16.103069, "town": "Vibo Valentia", "provincere": "Vibo Valentia Calabria", "latnew": 38.678537, "lngnew": 16.103069 }, "geometry": { "type": "Point", "coordinates": [ 16.103069199999936, 38.678537 ] } },
{ "type": "Feature", "properties": { "submission": 335, "NAME": "Ospedale Castelli Verbania SPDC", "Latitude": 45.926046, "Longitude": 8.549753, "town": "Verbania", "provincere": "Verbania Piemonte", "latnew": 45.926046, "lngnew": 8.549753 }, "geometry": { "type": "Point", "coordinates": [ 8.5497529, 45.9260455 ] } },
{ "type": "Feature", "properties": { "submission": 336, "NAME": "Ospedale del Casentino SPDC", "Latitude": 43.702173, "Longitude": 11.821281, "town": "Bibiena", "provincere": "Arezzo Toscana", "latnew": 43.699161, "lngnew": 11.820355 }, "geometry": { "type": "Point", "coordinates": [ 11.820355465456766, 43.699160992618545 ] } },
{ "type": "Feature", "properties": { "submission": 337, "NAME": "OSPEDALE DELLA VALTIBERINA SPDC", "Latitude": 43.572128, "Longitude": 12.135674, "town": "Sansepolcro", "provincere": "Arezzo Toscana", "latnew": 43.572128, "lngnew": 12.135674 }, "geometry": { "type": "Point", "coordinates": [ 12.135674, 43.572128 ] } },
{ "type": "Feature", "properties": { "submission": 338, "NAME": "OSPEDALE San Donato di Arezzo SPDC", "Latitude": 43.460633, "Longitude": 11.864763, "town": "Arezzo", "provincere": "Arezzo Toscana", "latnew": 43.460633, "lngnew": 11.864763 }, "geometry": { "type": "Point", "coordinates": [ 11.8647632, 43.4606325 ] } },
{ "type": "Feature", "properties": { "submission": 339, "NAME": "Ospedale Santa Maria alla Gruccia di Montevarchi SPDC", "Latitude": 43.542711, "Longitude": 11.549967, "town": "Montevarchi", "provincere": "Arezzo Toscana", "latnew": 43.545494, "lngnew": 11.553516 }, "geometry": { "type": "Point", "coordinates": [ 11.553515749082107, 43.545494462790266 ] } },
{ "type": "Feature", "properties": { "submission": 340, "NAME": "NUOVO OSPEDALE VALDICHIANA S. MARGHERITA SPDC", "Latitude": 43.276221, "Longitude": 11.928282, "town": "CORTONA", "provincere": "Arezzo Toscana", "latnew": 43.278544, "lngnew": 11.923636 }, "geometry": { "type": "Point", "coordinates": [ 11.92363648405189, 43.278543798136837 ] } },
{ "type": "Feature", "properties": { "submission": 341, "NAME": "OSPEDALE DI BORGO SAN LORENZO SPDC", "Latitude": 43.957385, "Longitude": 11.378823, "town": "Borgo San Lorenzo", "provincere": "Firenze Toscana", "latnew": 43.958286, "lngnew": 11.375172 }, "geometry": { "type": "Point", "coordinates": [ 11.375171891524181, 43.958285661533253 ] } },
{ "type": "Feature", "properties": { "submission": 342, "NAME": "OSPEDALE Santa Maria Annunziata SPDC", "Latitude": 43.731675, "Longitude": 11.309035, "town": "BAGNO A RIPOLI", "provincere": "Firenze Toscana", "latnew": 43.731502, "lngnew": 11.305726 }, "geometry": { "type": "Point", "coordinates": [ 11.305726356169803, 43.73150157559877 ] } },
{ "type": "Feature", "properties": { "submission": 343, "NAME": "Ospedale Santa Maria Nuova di Firenze SPDC", "Latitude": 43.773164, "Longitude": 11.259455, "town": "Firenze", "provincere": "Firenze Toscana", "latnew": 43.773164, "lngnew": 11.259455 }, "geometry": { "type": "Point", "coordinates": [ 11.2594547, 43.7731639 ] } },
{ "type": "Feature", "properties": { "submission": 344, "NAME": "Presidio Ospedaliero S. Andrea VERCELLI SPDC", "Latitude": 45.317901, "Longitude": 8.414444, "town": "Vercelli", "provincere": "Vercelli Piemonte", "latnew": 45.317901, "lngnew": 8.414444 }, "geometry": { "type": "Point", "coordinates": [ 8.414443500000061, 45.3179012 ] } },
{ "type": "Feature", "properties": { "submission": 345, "NAME": "Ospedale San Giuseppe di Empoli SPDC", "Latitude": 43.722225, "Longitude": 10.931687, "town": "Empoli", "provincere": "Firenze Toscana", "latnew": 43.722225, "lngnew": 10.931687 }, "geometry": { "type": "Point", "coordinates": [ 10.931687499999953, 43.7222246 ] } },
{ "type": "Feature", "properties": { "submission": 348, "NAME": "Ospedale San Giovanni di Dio di Firenze SPDC", "Latitude": 43.757948, "Longitude": 11.200932, "town": "Firenze", "provincere": "Firenze Toscana", "latnew": 43.757948, "lngnew": 11.200932 }, "geometry": { "type": "Point", "coordinates": [ 11.2009316, 43.7579475 ] } },
{ "type": "Feature", "properties": { "submission": 347, "NAME": "AZIenda OSPEDALIERO - UNIVERSITARIA CAREGGI di Firenze SPDC\n", "Latitude": 43.803270, "Longitude": 11.246188, "town": "Firenze", "provincere": "Firenze Toscana", "latnew": 43.803270, "lngnew": 11.246188 }, "geometry": { "type": "Point", "coordinates": [ 11.24618780000003, 43.8032704 ] } },
{ "type": "Feature", "properties": { "submission": 349, "NAME": "OSPEDALE  S.ANDREA MASSA MARITTIMA SPDC", "Latitude": 43.043336, "Longitude": 10.888242, "town": "Massa Marittima", "provincere": "Grosseto Toscana", "latnew": 43.042747, "lngnew": 10.890197 }, "geometry": { "type": "Point", "coordinates": [ 10.890196828479938, 43.042746837830748 ] } },
{ "type": "Feature", "properties": { "submission": 350, "NAME": "OSPEDALE DELLE COLLINE DELLALBEGNA SPDC", "Latitude": 42.439647, "Longitude": 11.212408, "town": "Orbetello", "provincere": "Grosseto Toscana", "latnew": 42.446985, "lngnew": 11.238055 }, "geometry": { "type": "Point", "coordinates": [ 11.23805457549204, 42.446984847212093 ] } },
{ "type": "Feature", "properties": { "submission": 351, "NAME": "OSPEDALE DELLA MISERICORDIA di GROSSETO SPDC", "Latitude": 42.775825, "Longitude": 11.122794, "town": "Grosseto", "provincere": "Grosseto Toscana", "latnew": 42.775825, "lngnew": 11.122794 }, "geometry": { "type": "Point", "coordinates": [ 11.122794399999975, 42.7758247 ] } },
{ "type": "Feature", "properties": { "submission": 352, "NAME": "OSPEDALE LIVORNO SPDC", "Latitude": 43.550917, "Longitude": 10.327342, "town": "Livorno", "provincere": "Livorno Toscana", "latnew": 43.550917, "lngnew": 10.327342 }, "geometry": { "type": "Point", "coordinates": [ 10.327342199999975, 43.5509166 ] } },
{ "type": "Feature", "properties": { "submission": 353, "NAME": "OSPEDALE Civile Elbano DI PORTOFERRAIO SPDC", "Latitude": 42.815924, "Longitude": 10.321375, "town": "Portoferraio", "provincere": "Livorno Toscana", "latnew": 42.815924, "lngnew": 10.321375 }, "geometry": { "type": "Point", "coordinates": [ 10.321375399999965, 42.8159242 ] } },
{ "type": "Feature", "properties": { "submission": 354, "NAME": "PRESIDIO OSPEDALIERO PIANA DI LUCCA SPDC", "Latitude": 43.850445, "Longitude": 10.515977, "town": "Lucca", "provincere": "Lucca Toscana", "latnew": 43.850445, "lngnew": 10.515977 }, "geometry": { "type": "Point", "coordinates": [ 10.515977, 43.8504453 ] } },
{ "type": "Feature", "properties": { "submission": 355, "NAME": "OSPEDALE VERSILIA SPDC", "Latitude": 43.895266, "Longitude": 10.236905, "town": "Lido di Camaiore", "provincere": "Lucca Toscana", "latnew": 43.914435, "lngnew": 10.223876 },